$GPRMC,100133.000,A,5638.0417,N,01627.8253,E,0.00,61.17,150711,,,A*58
$GPGGA,100134.000,5638.0417,N,01627.8253,E,1,09,1.1,16.4,M,31.2,M,,0000*65
$GPGSA,A,3,15,26,28,27,09,18,17,08,11,,,,2.0,1.1,1.6*36
$GPRMC,100134.000,A,5638.0417,N,01627.8253,E,0.00,61.17,150711,,,A*5F
$GPGGA,100135.000,5638.0417,N,01627.8253,E,1,09,1.1,16.4,M,31.2,M,,0000*64
$GPGSA,A,3,15,26,28,27,09,18,17,08,11,,,,2.0,1.1,1.6*36
$GPGSV,3,1,12,15,65,256,42,26,54,162,49,28,54,070,49,27,49,273,47*79
$GPGSV,3,2,12,09,28,272,47,18,25,305,45,17,24,130,41,08,16,087,45*73
$GPGSV,3,3,12,11,06,045,25,22,08,336,31,19,11,024,,05,09,210,*77
$GPRMC,100135.000,A,5638.0417,N,01627.8253,E,0.00,61.17,150711,,,A*5E
$GPGGA,100136.000,5638.0417,N,01627.8253,E,1,09,1.1,16.3,M,31.2,M,,0000*60
$GPGSA,A,3,15,26,28,27,09,18,17,08,11,,,,2.0,1.1,1.6*36
$GPRMC,100136.000,A,5638.0417,N,01627.8253,E,0.00,61.17,150711,,,A*5D
$GPGGA,100137.000,5638.0416,N,01627.8253,E,1,08,1.3,16.3,M,31.2,M,,0000*63
$GPGSA,A,3,15,26,28,27,09,18,17,08,,,,,2.2,1.3,1.7*37
$GPRMC,100137.000,A,5638.0416,N,01627.8253,E,0.00,61.17,150711,,,A*5D
$GPGGA,100138.000,5638.0416,N,01627.8253,E,1,09,1.1,16.3,M,31.2,M,,0000*6F
$GPGSA,A,3,15,26,28,27,09,18,17,08,11,,,,2.0,1.1,1.6*36
$GPRMC,100138.000,A,5638.0416,N,01627.8253,E,0.00,61.17,150711,,,A*52
$GPGGA,100139.000,5638.0416,N,01627.8253,E,1,09,1.1,16.3,M,31.2,M,,0000*6E
$GPGSA,A,3,15,26,28,27,09,18,17,08,11,,,,2.0,1.1,1.6*36
$GPRMC,100139.000,A,5638.0416,N,01627.8253,E,0.00,61.17,150711,,,A*53
$GPGGA,100140.000,5638.0416,N,01627.8253,E,1,09,1.1,16.3,M,31.2,M,,0000*60
$GPGSA,A,3,15,26,28,27,09,18,17,08,11,,,,2.0,1.1,1.6*36
$GPGSV,3,1,12,15,65,255,43,26,54,162,49,28,54,070,48,27,49,273,48*75
$GPGS3,2,12,09,28,272,47,18,25,305,46,17,24,130,40,08,15,087,44*73
$GPGSV,3,3,12,11,06,045,29,19,10,024,,05,08,210,,22,08,336,*79
$GPRMC,100140.000,A,5638.0416,N,01627.8253,E,0.00,61.17,150711,,,A*5D
$GPGGA,100141.000,5638.0416,N,01627.8253,E,1,09,1.1,16.2,M,31.2,M,,0000*60
$GPGSA,A,3,15,26,28,27,09,18,17,08,11,,,,2.0,1.1,1.6*36
$GPRMC,100141.000,A,5638.0416,N,01627.8253,E,0.00,61.17,150711,,,A*5C
$GPGGA,100142.000,5638.0416,N,01627.8253,E,1,09,1.1,16.2,M,31.2,M,,0000*63
$GPGSA,A,3,15,26,28,27,09,18,17,08,11,,,,2.0,1.1,1.6*36
$GPRMC,100142.000,A,5638.0416,N,01627.8253,E,0.00,61.17,150711,,,A*5F
$GPGGA,100143.000,5638.0416,N,01627.8253,E,1,09,1.1,16.2,M,31.2,M,,0000*62
$GPGSA,A,3,15,26,28,27,09,18,17,08,11,,,,2.0,1.1,1.6*36
$GPRMC,100143.000,A,5638.0416,N,01627.8253,E,0.00,61.17,150711,,,A*5E
$GPGGA,100144.000,5638.0414,N,01627.8256,E,1,09,1.1,14.2,M,31.2,M,,0000*60
$GPGSA,A,3,15,26,28,27,09,18,17,08,11,,,,2.0,1.1,1.6*36
$GPRMC,100144.000,A,5638.0414,N,01627.8256,E,0.95,61.17,150711,,,A*52
$GPGGA,100145.000,5638.0410,N,01627.8259,E,1,09,1.1,14.6,M,31.2,M,,0000*6E
$GPGSA,A,3,15,26,28,27,09,18,17,08,11,,,,2.0,1.1,1.6*36
$GPGSV,3,1,12,15,65,255,43,26,54,162,50,28,54,070,48,27,49,273,45*70
$GPGSV,3,2,12,09,28,272,47,18,25,305,46,17,24,130,40,08,15,087,44*73
$GPGSV,3,3,12,11,06,045,36,19,10,024,,05,08,210,,22,08,336,*77
$GPRMC,100145.000,A,5638.0410,N,01627.8259,E,1.24,154.38,150711,,,A*69
$GPGGA,100146.000,5638.0406,N,01627.8264,E,1,09,1.1,14.1,M,31.2,M,,0000*63
$GPGSA,A,3,15,26,28,27,09,18,17,08,11,,,,2.0,1.1,1.6*36
$GPRMC,100146.000,A,5638.0406,N,01627.8264,E,1.67,149.19,150711,,,A*6B
$GPGGA,100147.000,5638.0405,N,01627.8269,E,1,09,1.1,14.8,M,31.2,M,,0000*65
$GPGSA,A,3,15,26,28,27,09,18,17,08,11,,,,2.0,1.1,1.6*36
$GPRMC,100147.000,A,5638.0405,N,01627.8269,E,1.05,149.19,150711,,,A*60
$GPGGA,100148.000,5638.0402,N,01627.8275,E,1,09,1.1,14.7,M,31.2,M,,0000*6F
$GPGSA,A,3,15,26,28,27,09,18,17,08,11,,,,2.0,1.1,1.6*36
$GPRMC,100148.000,A,5638.0402,N,01627.8275,E,2.18,144.65,150711,,,A*6C
$GPGGA,100149.000,5638.0397,N,01627.8284,E,1,09,1.1,14.6,M,31.2,M,,0000*6A
$GPGSA,A,3,15,26,28,27,09,18,17,08,11,,,,2.0,1.1,1.6*36
$GPRMC,100149.000,A,5638.0397,N,01627.8284,E,2.36,141.35,150711,,,A*64
$GPGGA,100150.000,5638.0391,N,01627.8291,E,1,09,1.1,14.5,M,31.2,M,,0000*63
$GPGSA,A,3,15,26,28,27,09,18,17,08,11,,,,2.0,1.1,1.6*36
$GPGSV,3,1,12,15,65,255,46,26,54,162,50,28,54,070,48,27,49,273,46*76
$GPGSV,3,2,12,09,28,272,44,18,25,305,39,17,25,130,40,08,15,087,38*72
$GPGSV,3,3,12,11,06,045,35,19,10,024,,05,08,210,,22,08,336,*74
$GPRMC,100150.000,A,5638.0391,N,01627.8291,E,3.33,149.60,150711,,,A*62
$GPGGA,100151.000,5638.0381,N,01627.8296,E,1,09,1.1,14.6,M,31.2,M,,0000*67
$GPGSA,A,3,15,26,28,27,09,18,17,08,11,,,,2.0,1.1,1.6*36
$GPRMC,100151.000,A,5638.0381,N,01627.8296,E,4.64,162.23,150711,,,A*6E
$GPGGA,100152.000,5638.0368,N,01627.8297,E,1,09,1.1,14.7,M,31.2,M,,0000*63
$GPGSA,A,3,15,26,28,27,09,18,17,08,11,,,,2.0,1.1,1.6*36
$GPRMC,100152.000,A,5638.0368,N,01627.8297,E,5.37,171.99,150711,,,A*6F
$GPGGA,100153.000,5638.0352,N,01627.8292,E,1,09,1.1,14.6,M,31.2,M,,0000*6F
$GPGSA,A,3,15,26,28,27,09,18,17,08,11,,,,2.0,1.1,1.6*36
$GPRMC,100153.000,A,5638.0352,N,01627.8292,E,6.52,181.56,150711,,,A*6E
$GPGGA,100154.000,5638.0335,N,01627.8286,E,1,09,1.1,14.5,M,31.2,M,,0000*6F
$GPGSA,A,3,15,26,28,27,09,18,17,08,11,,,,2.0,1.1,1.6*36
$GPRMC,100154.000,A,5638.0335,N,01627.8286,E,7.06,185.78,150711,,,A*65
$GPGGA,100155.000,5638.0315,N,01627.8281,E,1,09,1.1,14.4,M,31.2,M,,0000*6A
$GPGSA,A,3,15,26,28,27,09,18,17,08,11,,,,2.0,1.1,1.6*36
$GPGSV,3,1,12,15,65,255,48,26,54,162,50,28,54,070,48,27,49,273,48*76
$GPGSV,3,2,12,09,28,272,45,18,25,305,45,17,25,130,36,08,15,087,32*73
$GPGSV,3,3,12,11,06,045,28,19,10,024,,05,08,210,,22,08,336,*78
$GPRMC,100155.000,A,5638.0315,N,01627.8281,E,7.69,186.16,150711,,,A*63
$GPGGA,100156.000,5638.0295,N,01627.8275,E,1,09,1.1,14.4,M,31.2,M,,0000*6B
$GPGSA,A,3,15,26,28,27,09,18,17,08,11,,,,2.0,1.1,1.6*36
$GPRMC,100156.000,A,5638.0295,N,01627.8275,E,7.53,186.04,150711,,,A*68
$GPGGA,100157.000,5638.0275,N,01627.8270,E,1,09,1.1,14.3,M,31.2,M,,0000*66
$GPGSA,A,3,15,26,28,27,09,18,17,08,11,,,,2.0,1.1,1.6*36
$GPRMC,100157.000,A,5638.0275,N,01627.8270,E,7.57,186.51,150711,,,A*66
$GPGGA,100158.000,5638.0255,N,01627.8265,E,1,09,1.1,14.3,M,31.2,M,,0000*6F
$GPGSA,A,3,15,26,28,27,09,18,17,08,11,,,,2.0,1.1,1.6*36
$GPRMC,100158.000,A,5638.0255,N,01627.8265,E,7.16,186.30,150711,,,A*6D
$GPGGA,100159.000,5638.0236,N,01627.8263,E,1,09,1.1,13.8,M,31.2,M,,0000*61
$GPGSA,A,3,15,26,28,27,09,18,17,08,11,,,,2.0,1.1,1.6*36
$GPRMC,100159.000,A,5638.0236,N,01627.8263,E,4.79,187.25,150711,,,A*60
$GPGGA,100200.000,5638.0223,N,01627.8261,E,1,09,1.1,13.3,M,31.2,M,,0000*63
$GPGSA,A,3,15,26,28,27,09,18,17,08,11,,,,2.0,1.1,1.6*36
$GPGSV,3,1,12,15,65,255,49,26,54,162,50,28,54,070,48,27,49,273,49*76
$GP,2,12,09,28,272,46,18,25,305,45,17,25,130,47,08,15,087,28*7D
$GPGSV,3,3,12,11,06,045,29,22,08,336,32,19,10,024,,05,08,210,*78
$GPRMC,100200.000,A,5638.0223,N,01627.8261,E,3.58,186.96,150711,,,A*64
$GPGGA,100201.000,5638.0214,N,01627.8260,E,1,09,1.1,13.0,M,31.2,M,,0000*64
$GPGSA,A,3,15,26,28,27,09,18,17,08,11,,,,2.0,1.1,1.6*36
$GPRMC,100201.000,A,5638.0214,N,01627.8260,E,1.94,187.00,150711,,,A*6C
$GPGGA,100202.000,5638.0210,N,01627.8258,E,1,09,1.1,13.0,M,31.2,M,,0000*68
$GPGSA,A,3,15,26,28,27,09,18,17,08,11,,,,2.0,1.1,1.6*36
$GPRMC,100202.000,A,5638.0210,N,01627.8258,E,1.64,187.82,150711,,,A*65
$GPGGA,100203.000,5638.0207,N,01627.8258,E,1,09,1.1,13.0,M,31.2,M,,0000*6F
$GPGSA,A,3,15,26,28,27,09,18,17,08,11,,,,2.0,1.1,1.6*36
$GPRMC,100203.000,A,5638.0207,N,01627.8258,E,0.16,187.82,150711,,,A*66
$GPGGA,100204.000,5638.0207,N,01627.8257,E,1,09,1.1,12.9,M,31.2,M,,0000*6F
$GPGSA,A,3,15,26,28,27,09,18,17,08,11,,,,2.0,1.1,1.6*36
$GPRMC,100204.000,A,5638.0207,N,01627.8257,E,0.00,187.82,150711,,,A*69
$GPGGA,100205.000,5638.0204,N,01627.8258,E,1,09,1.1,13.2,M,31.2,M,,0000*68
$GPGSA,A,3,15,26,28,27,09,18,17,08,11,,,,2.0,1.1,1.6*36
$GPGSV,3,1,12,15,65,255,49,26,54,162,50,28,54,070,47,27,49,273,43*73
$GPGSV,3,2,12,09,28,272,37,18,25,305,44,17,25,130,48,08,15,087,40*7B
$GPGSV,3,3,12,11,06,045,29,19,10,024,,05,08,210,,22,08,336,*79
$GPRMC,100205.000,A,5638.0204,N,01627.8258,E,1.02,187.82,150711,,,A*67
$GPGGA,100206.000,5638.0199,N,01627.8255,E,1,09,1.1,13.2,M,31.2,M,,0000*61
$GPGSA,A,3,15,26,28,27,09,18,17,08,11,,,,2.0,1.1,1.6*36
$GPRMC,100206.000,A,5638.0199,N,01627.8255,E,2.46,192.81,150711,,,A*6A
$GPGGA,100207.000,5638.0190,N,01627.8251,E,1,09,1.1,13.1,M,31.2,M,,0000*6E
$GPGSA,A,3,15,26,28,27,09,18,17,08,11,,,,2.0,1.1,1.6*36
$GPRMC,100207.000,A,5638.0190,N,01627.8251,E,3.70,191.22,150711,,,A*68
$GPGGA,100208.000,5638.0178,N,01627.8254,E,1,09,1.1,13.1,M,31.2,M,,0000*62
$GPGSA,A,3,15,26,28,27,09,18,17,08,11,,,,2.0,1.1,1.6*36
$GPRMC,100208.000,A,5638.0178,N,01627.8254,E,5.31,173.27,150711,,,A*6E
$GPGGA,100209.000,5638.0166,N,01627.8273,E,1,09,1.1,13.0,M,31.2,M,,0000*68
$GPGSA,A,3,15,26,28,27,09,18,17,08,11,,,,2.0,1.1,1.6*36
$GPRMC,100209.000,A,5638.0166,N,01627.8273,E,6.07,153.10,150711,,,A*65
$GPGGA,100210.000,5638.0162,N,01627.8301,E,1,09,1.1,13.2,M,31.2,M,,0000*62
$GPGSA,A,3,15,26,28,27,09,18,17,08,11,,,,2.0,1.1,1.6*36
$GPGSV,3,1,12,15,65,255,49,26,54,162,50,28,54,070,48,27,50,273,46*71
$GPGS,2,12,09,28,272,44,18,25,305,37,17,25,130,48,08,15,087,41*7A
$GPGSV,3,3,12,11,06,045,24,22,08,336,34,19,10,024,,05,08,210,*73
$GPRMC,100210.000,A,5638.0162,N,01627.8301,E,6.01,135.67,150711,,,A*6B
$GPGGA,100211.000,5638.0166,N,01627.8323,E,1,09,1.1,13.2,M,31.2,M,,0000*67
$GPGSA,A,3,15,26,28,27,09,18,17,08,11,,,,2.0,1.1,1.6*36
$GPRMC,100211.000,A,5638.0166,N,01627.8323,E,3.31,125.24,150711,,,A*6E
$GPGGA,100212.000,5638.0168,N,01627.8330,E,1,09,1.1,13.3,M,31.2,M,,0000*69
$GPGSA,A,3,15,26,28,27,09,18,17,08,11,,,,2.0,1.1,1.6*36
$GPRMC,100212.000,A,5638.0168,N,01627.8330,E,0.25,125.24,150711,,,A*67
$GPGGA,100213.000,5638.0169,N,01627.8326,E,1,09,1.1,13.4,M,31.2,M,,0000*69
$GPGSA,A,3,15,26,28,27,09,18,17,08,11,,,,2.0,1.1,1.6*36
$GPRMC,100213.000,A,5638.0169,N,01627.8326,E,1.41,132.13,150711,,,A*61
$GPGGA,100214.000,5638.0169,N,01627.8316,E,1,09,1.1,13.3,M,31.2,M,,0000*6A
$GPGSA,A,3,15,26,28,27,09,18,17,08,11,,,,2.0,1.1,1.6*36
$GPRMC,100214.000,A,5638.0169,N,01627.8316,E,2.59,148.66,150711,,,A*60
$GPGGA,100215.000,5638.0168,N,01627.8303,E,1,09,1.1,13.3,M,31.2,M,,0000*6E
$GPGSA,A,3,15,26,28,27,09,18,17,08,11,,,,2.0,1.1,1.6*36
$GPGSV,3,1,12,15,65,255,49,26,54,162,50,28,54,070,49,27,50,273,47*71
$GPGSV,3,2,12,09,28,272,44,18,25,305,40,17,25,130,48,08,15,087,37*7B
$GPGSV,3,3,12,11,06,045,31,22,08,336,38,19,10,024,,05,08,210,*7B
$GPRMC,100215.000,A,5638.0168,N,01627.8303,E,2.59,165.45,150711,,,A*6A
$GPGGA,100216.000,5638.0167,N,01627.8291,E,1,09,1.1,13.3,M,31.2,M,,0000*68
$GPGSA,A,3,15,26,28,27,09,18,17,08,11,,,,2.0,1.1,1.6*36
$GPRMC,100216.000,A,5638.0167,N,01627.8291,E,2.36,177.68,150711,,,A*69
$GPGGA,100217.000,5638.0167,N,01627.8280,E,1,09,1.1,13.3,M,31.2,M,,0000*69
$GPGSA,A,3,15,26,28,27,09,18,17,08,11,,,,2.0,1.1,1.6*36
$GPRMC,100217.000,A,5638.0167,N,01627.8280,E,2.43,191.00,150711,,,A*6C
$GPGGA,100218.000,5638.0165,N,01627.8269,E,1,09,1.1,13.3,M,31.2,M,,0000*63
$GPGSA,A,3,15,26,28,27,09,18,17,08,11,,,,2.0,1.1,1.6*36
$GPRMC,100218.000,A,5638.0165,N,01627.8269,E,2.04,198.17,150711,,,A*6A
$GPGGA,100219.000,5638.0164,N,01627.8264,E,1,09,1.1,13.2,M,31.2,M,,0000*6F
$GPGSA,A,3,15,26,28,27,09,18,17,08,11,,,,2.0,1.1,1.6*36
$GPRMC,100219.000,A,5638.0164,N,01627.8264,E,0.31,198.17,150711,,,A*63
$GPGGA,100220.000,5638.0164,N,01627.8268,E,1,09,1.1,13.3,M,31.2,M,,0000*68
$GPGSA,A,3,15,26,28,27,09,18,17,08,11,,,,2.0,1.1,1.6*36
$GPGSV,3,1,11,15,65,254,49,26,54,162,49,28,54,070,49,27,50,273,47*7B
$GPGSV,3,,11,09,28,272,44,18,25,305,39,17,25,130,49,08,15,087,38*78
$GPGSV,3,3,11,11,06,045,26,22,08,336,38,19,10,024,*40
$GPRMC,100220.000,A,5638.0164,N,01627.8268,E,1.55,183.83,150711,,,A*61
$GPGGA,100221.000,5638.0169,N,01627.8277,E,1,09,1.1,13.3,M,31.2,M,,0000*6A
$GPGSA,A,3,15,26,28,27,09,18,17,08,11,,,,2.0,1.1,1.6*36
$GPRMC,100221.000,A,5638.0169,N,01627.8277,E,3.38,122.53,150711,,,A*6C
$GPGGA,100222.000,5638.0179,N,01627.8287,E,1,09,1.1,13.2,M,31.2,M,,0000*66
$GPGSA,A,3,15,26,28,27,09,18,17,08,11,,,,2.0,1.1,1.6*36
$GPRMC,100222.000,A,5638.0179,N,01627.8287,E,5.30,49.18,150711,,,A*5C
$GPGGA,100223.000,5638.0194,N,01627.8290,E,1,09,1.1,13.3,M,31.2,M,,0000*63
$GPGSA,A,3,15,26,28,27,09,18,17,08,11,,,,2.0,1.1,1.6*36
$GPRMC,100223.000,A,5638.0194,N,01627.8290,E,6.02,14.38,150711,,,A*50
$GPGGA,100224.000,5638.0212,N,01627.8289,E,1,09,1.1,13.4,M,31.2,M,,0000*66
$GPGSA,A,3,15,26,28,27,09,18,17,08,11,,,,2.0,1.1,1.6*36
$GPRMC,100224.000,A,5638.0212,N,01627.8289,E,7.22,5.48,150711,,,A*66
$GPGGA,100225.000,5638.0235,N,01627.8291,E,1,09,1.1,13.4,M,31.2,M,,0000*6B
$GPGSA,A,3,15,26,28,27,09,18,17,08,11,,,,2.0,1.1,1.6*36
$GPGSV,3,1,11,15,65,254,48,26,54,162,49,28,54,070,49,27,50,273,47*7A
$GPGSV,3,2,11,09,28,272,44,18,25,305,47,17,25,130,48,08,15,087,34*7C
$GPGSV,3,3,11,11,06,045,26,22,08,336,34,19,10,024,*4C
$GPRMC,100225.000,A,5638.0235,N,01627.8291,E,8.24,5.16,150711,,,A*69
$GPGGA,100226.000,5638.0260,N,01627.8295,E,1,09,1.1,13.4,M,31.2,M,,0000*6C
$GPGSA,A,3,15,26,28,27,09,18,17,08,11,,,,2.0,1.1,1.6*36
$GPRMC,100226.000,A,5638.0260,N,01627.8295,E,9.59,4.79,150711,,,A*6D
$GPGGA,100227.000,5638.0285,N,01627.8299,E,1,09,1.1,13.4,M,31.2,M,,0000*6A
$GPGSA,A,3,15,26,28,27,09,18,17,08,11,,,,2.0,1.1,1.6*36
$GPRMC,100227.000,A,5638.0285,N,01627.8299,E,8.66,5.65,150711,,,A*6A
$GPGGA,100228.000,5638.0312,N,01627.8304,E,1,09,1.1,13.4,M,31.2,M,,0000*6F
$GPGSA,A,3,15,26,28,27,09,18,17,08,11,,,,2.0,1.1,1.6*36
$GPRMC,100228.000,A,5638.0312,N,01627.8304,E,9.84,6.54,150711,,,A*63
$GPGGA,100229.000,5638.0342,N,01627.8311,E,1,09,1.1,13.6,M,31.2,M,,0000*6D
$GPGSA,A,3,15,26,28,27,09,18,17,08,11,,,,2.0,1.1,1.6*36
$GPRMC,100229.000,A,5638.0342,N,01627.8311,E,11.70,6.98,150711,,,A*51
$GPGGA,100230.000,5638.0377,N,01627.8319,E,1,09,1.1,13.7,M,31.2,M,,0000*6A
$GPGSA,A,3,15,26,28,27,09,18,17,08,11,,,,2.0,1.1,1.6*36
$GPGSV,3,1,11,15,65,254,48,26,54,162,49,28,54,070,49,27,50,273,48*75
$GPGSV,3,2,11,09,28,272,46,18,25,305,46,17,25,130,35,08,15,087,31*70
$GPGSV,3,3,11,11,06,045,31,19,10,024,,22,08,336,*4D
$GPRMC,100230.000,A,5638.0377,N,01627.8319,E,13.35,7.77,150711,,,A*54
$GPGGA,100231.000,5638.0417,N,01627.8328,E,1,09,1.1,13.9,M,31.2,M,,0000*66
$GPGSA,A,3,15,26,28,27,09,18,17,08,11,,,,2.0,1.1,1.6*36
$GPRMC,100231.000,A,5638.0417,N,01627.8328,E,14.98,7.56,150711,,,A*55
$GPGGA,100232.000,5638.0459,N,01627.8338,E,1,09,1.1,14.1,M,31.2,M,,0000*61
$GPGSA,A,3,15,26,28,27,09,18,17,08,11,,,,2.0,1.1,1.6*36
$GPRMC,100232.000,A,5638.0459,N,01627.8338,E,15.65,7.02,150711,,,A*5F
$GPGGA,100233.000,5638.0502,N,01627.8347,E,1,09,1.1,14.4,M,31.2,M,,0000*62
$GPGSA,A,3,15,26,28,27,09,18,17,08,11,,,,2.0,1.1,1.6*36
$GPRMC,100233.000,A,5638.0502,N,01627.8347,E,15.08,7.26,150711,,,A*54
$GPGGA,100234.000,5638.0542,N,01627.8355,E,1,09,1.1,14.9,M,31.2,M,,0000*6F
$GPGSA,A,3,15,26,28,27,09,18,17,08,11,,,,2.0,1.1,1.6*36
$GPRMC,100234.000,A,5638.0542,N,01627.8355,E,14.78,7.43,150711,,,A*51
$GPGGA,100235.000,5638.0581,N,01627.8363,E,1,09,1.1,15.1,M,31.2,M,,0000*6D
$GPGSA,A,3,15,26,28,27,09,18,17,08,11,,,,2.0,1.1,1.6*36
$GPGSV,3,1,11,15,65,254,48,26,54,162,49,28,54,070,45,27,50,273,47*76
$GPGSV,3,2,11,09,28,272,46,18,25,305,45,17,25,130,46,08,15,087,42*73
$GPGSV,3,3,11,11,06,045,34,22,08,336,31,19,10,024,*4A
$GPRMC,100235.000,A,5638.0581,N,01627.8363,E,14.14,7.63,150711,,,A*52
$GPGGA,100236.000,5638.0620,N,01627.8373,E,1,09,1.1,15.3,M,31.2,M,,0000*65
$GPGSA,A,3,15,26,28,27,09,18,17,08,11,,,,2.0,1.1,1.6*36
$GPRMC,100236.000,A,5638.0620,N,01627.8373,E,14.46,9.51,150711,,,A*50
$GPGGA,100237.000,5638.0658,N,01627.8387,E,1,09,1.1,15.0,M,31.2,M,,0000*63
$GPGSA,A,3,15,26,28,27,09,18,17,08,11,,,,2.0,1.1,1.6*36
$GPRMC,100237.000,A,5638.0658,N,01627.8387,E,14.93,9.92,150711,,,A*52
$GPGGA,100238.000,5638.0703,N,01627.8403,E,1,09,1.1,14.9,M,31.2,M,,0000*60
$GPGSA,A,3,15,26,28,27,09,18,17,08,11,,,,2.0,1.1,1.6*36
$GPRMC,100238.000,A,5638.0703,N,01627.8403,E,17.10,12.35,150711,,,A*66
$GPGGA,100239.000,5638.0749,N,01627.8422,E,1,09,1.1,14.7,M,31.2,M,,0000*62
$GPGSA,A,3,15,26,28,27,09,18,17,08,11,,,,2.0,1.1,1.6*36
$GPRMC,100239.000,A,5638.0749,N,01627.8422,E,17.08,12.77,150711,,,A*65
$GPGGA,100240.000,5638.0795,N,01627.8439,E,1,09,1.1,14.2,M,31.2,M,,0000*62
$GPGSA,A,3,15,26,28,27,09,18,17,08,11,,,,2.0,1.1,1.6*36
$GPGSV,3,1,11,15,65,254,48,26,54,162,49,28,54,070,50,27,50,273,46*73
$GPGSV,,2,11,09,28,272,45,18,25,305,44,17,25,130,45,08,15,087,43*73
$GPGSV,3,3,11,11,06,045,27,19,10,024,,22,08,336,*4A
$GPRMC,100240.000,A,5638.0795,N,01627.8439,E,17.15,10.77,150711,,,A*6E
$GPGGA,100241.000,5638.0842,N,01627.8455,E,1,09,1.1,13.9,M,31.2,M,,0000*60
$GPGSA,A,3,15,26,28,27,09,18,17,08,11,,,,2.0,1.1,1.6*36
$GPRMC,100241.000,A,5638.0842,N,01627.8455,E,17.35,11.13,150711,,,A*61
$GPGGA,100242.000,5638.0887,N,01627.8470,E,1,09,1.1,13.6,M,31.2,M,,0000*62
$GPGSA,A,3,15,26,28,27,09,18,17,08,11,,,,2.0,1.1,1.6*36
$GPRMC,100242.000,A,5638.0887,N,01627.8470,E,17.01,10.91,150711,,,A*60
$GPGGA,100243.000,5638.0933,N,01627.8486,E,1,09,1.1,13.7,M,31.2,M,,0000*65
$GPGSA,A,3,15,26,28,27,09,18,17,08,11,,,,2.0,1.1,1.6*36
$GPRMC,100243.000,A,5638.0933,N,01627.8486,E,16.72,10.97,150711,,,A*65
$GPGGA,100244.000,5638.0979,N,01627.8501,E,1,09,1.1,13.5,M,31.2,M,,0000*60
$GPGSA,A,3,15,26,28,27,09,18,17,08,11,,,,2.0,1.1,1.6*36
$GPRMC,100244.000,A,5638.0979,N,01627.8501,E,17.21,10.61,150711,,,A*6C
$GPGGA,100245.000,5638.1026,N,01627.8517,E,1,09,1.1,13.4,M,31.2,M,,0000*65
$GPGSA,A,3,15,26,28,27,09,18,17,08,11,,,,2.0,1.1,1.6*36
$GPGSV,3,1,11,15,65,254,48,26,54,162,49,28,54,070,50,27,50,273,47*72
$GPGSV,3,2,11,09,28,272,44,18,25,305,42,17,25,130,45,08,15,087,43*74
$GPGSV,3,3,11,11,06,045,25,22,08,336,34,19,10,024,*4F
$GPRMC,100245.000,A,5638.1026,N,01627.8517,E,17.67,10.56,150711,,,A*6E
$GPGGA,100246.000,5638.1076,N,01627.8534,E,1,09,1.1,13.0,M,31.2,M,,0000*66
$GPGSA,A,3,15,26,28,27,09,18,17,08,11,,,,2.0,1.1,1.6*36
$GPRMC,100246.000,A,5638.1076,N,01627.8534,E,18.44,10.10,150711,,,A*65
$GPGGA,100247.000,5638.1127,N,01627.8551,E,1,09,1.1,12.7,M,31.2,M,,0000*67
$GPGSA,A,3,15,26,28,27,09,18,17,08,11,,,,2.0,1.1,1.6*36
$GPRMC,100247.000,A,5638.1127,N,01627.8551,E,18.60,10.57,150711,,,A*67
$GPGGA,100248.000,5638.1176,N,01627.8570,E,1,09,1.1,12.3,M,31.2,M,,0000*6B
$GPGSA,A,3,15,26,28,27,09,18,17,08,11,,,,2.0,1.1,1.6*36
$GPRMC,100248.000,A,5638.1176,N,01627.8570,E,18.34,11.71,150711,,,A*6B
$GPGGA,100249.000,5638.1227,N,01627.8589,E,1,09,1.1,12.0,M,31.2,M,,0000*68
$GPGSA,A,3,15,26,28,27,09,18,17,08,11,,,,2.0,1.1,1.6*36
$GPRMC,100249.000,A,5638.1227,N,01627.8589,E,18.03,12.02,150711,,,A*68
$GPGGA,100250.000,5638.1277,N,01627.8609,E,1,09,1.1,12.1,M,31.2,M,,0000*6F
$GPGSA,A,3,15,26,28,27,09,18,17,08,11,,,,2.0,1.1,1.6*36
$GPGSV,3,1,11,15,66,254,48,26,54,162,49,28,54,070,49,27,50,273,47*79
$GPGSV,3,2,11,09,29,273,45,18,25,305,44,17,25,130,42,08,15,088,32*7D
$GPGSV,3,3,11,11,07,045,37,19,10,023,,22,08,336,*4D
$GPRMC,100250.000,A,5638.1277,N,01627.8609,E,17.97,12.16,150711,,,A*69
$GPGGA,100251.000,5638.1327,N,01627.8628,E,1,09,1.1,12.0,M,31.2,M,,0000*68
$GPGSA,A,3,15,26,28,27,09,18,17,08,11,,,,2.0,1.1,1.6*36
$GPRMC,100251.000,A,5638.1327,N,01627.8628,E,18.01,12.22,150711,,,A*68
$GPGGA,100252.000,5638.1375,N,01627.8648,E,1,09,1.1,11.7,M,31.2,M,,0000*6E
$GPGSA,A,3,15,26,28,27,09,18,17,08,11,,,,2.0,1.1,1.6*36
$GPRMC,100252.000,A,5638.1375,N,01627.8648,E,17.62,11.79,150711,,,A*6D
$GPGGA,100253.000,5638.1424,N,01627.8665,E,1,09,1.2,11.4,M,31.2,M,,0000*63
$GPGSA,A,3,15,26,28,27,09,18,17,08,11,,,,2.0,1.2,1.6*35
$GPRMC,100253.000,A,5638.1424,N,01627.8665,E,18.41,10.64,150711,,,A*63
$GPGGA,100254.000,5638.1474,N,01627.8681,E,1,09,1.2,11.4,M,31.2,M,,0000*6B
$GPGSA,A,3,15,26,28,27,09,18,17,08,11,,,,2.0,1.2,1.6*35
$GPRMC,100254.000,A,5638.1474,N,01627.8681,E,18.47,10.44,150711,,,A*6F
$GPGGA,100255.000,5638.1526,N,01627.8696,E,1,09,1.2,11.6,M,31.2,M,,0000*68
$GPGSA,A,3,15,26,28,27,09,18,17,08,11,,,,2.0,1.2,1.6*35
$GPGSV,3,1,11,15,66,254,48,26,54,162,49,28,54,070,50,27,50,273,46*70
$GPGSV,3,2,11,09,29,273,44,18,25,305,43,17,25,130,45,08,15,088,42*7B
$GPGSV,3,3,11,11,07,045,24,22,08,336,34,19,10,023,*48
$GPRMC,100255.000,A,5638.1526,N,01627.8696,E,19.54,9.44,150711,,,A*55
$GPGGA,100256.000,5638.1580,N,01627.8713,E,1,09,1.2,11.4,M,31.2,M,,0000*69
$GPGSA,A,3,15,26,28,27,09,18,17,08,11,,,,2.0,1.2,1.6*35
$GPRMC,100256.000,A,5638.1580,N,01627.8713,E,20.07,10.06,150711,,,A*64
$GPGGA,100257.000,5638.1635,N,01627.8731,E,1,09,1.2,11.5,M,31.2,M,,0000*64
$GPGSA,A,3,15,26,28,27,09,18,17,08,11,,,,2.0,1.2,1.6*35
$GPRMC,100257.000,A,5638.1635,N,01627.8731,E,19.86,10.45,150711,,,A*6C
$GPGGA,100258.000,5638.1689,N,01627.8750,E,1,09,1.2,11.8,M,31.2,M,,0000*66
$GPGSA,A,3,15,26,28,27,09,18,17,08,11,,,,2.0,1.2,1.6*35
$GPRMC,100258.000,A,5638.1689,N,01627.8750,E,19.81,11.76,150711,,,A*65
$GPGGA,100259.000,5638.1742,N,01627.8772,E,1,09,1.2,11.8,M,31.2,M,,0000*61
$GPGSA,A,3,15,26,28,27,09,18,17,08,11,,,,2.0,1.2,1.6*35
$GPRMC,100259.000,A,5638.1742,N,01627.8772,E,20.18,14.09,150711,,,A*65
$GPGGA,100300.000,5638.1795,N,01627.8800,E,1,09,1.2,11.8,M,31.2,M,,0000*6C
$GPGSA,A,3,15,26,28,27,09,18,17,08,11,,,,2.0,1.2,1.6*35
$GPGSV,3,1,11,15,66,254,48,26,54,162,49,28,54,070,49,27,50,273,47*79
$GPGSV,3,2,11,09,29,273,46,18,25,305,46,17,25,130,44,08,15,088,43*7C
$GPGSV,3,3,11,11,07,045,23,22,08,336,34,19,10,023,*4F
$GPRMC,100300.000,A,5638.1795,N,01627.8800,E,20.28,17.22,150711,,,A*61
$GPGGA,100301.000,5638.1850,N,01627.8832,E,1,09,1.2,12.0,M,31.2,M,,0000*61
$GPGSA,A,3,15,26,28,27,09,18,17,08,11,,,,2.0,1.2,1.6*35
$GPRMC,100301.000,A,5638.1850,N,01627.8832,E,21.00,18.10,150711,,,A*62
$GPGGA,100302.000,5638.1905,N,01627.8866,E,1,09,1.2,12.1,M,31.2,M,,0000*63
$GPGSA,A,3,15,26,28,27,09,18,17,08,11,,,,2.0,1.2,1.6*35
$GPRMC,100302.000,A,5638.1905,N,01627.8866,E,21.30,19.05,150711,,,A*67
$GPGGA,100303.000,5638.1961,N,01627.8900,E,1,09,1.2,12.0,M,31.2,M,,0000*60
$GPGSA,A,3,15,26,28,27,09,18,17,08,11,,,,2.0,1.2,1.6*35
$GPRMC,100303.000,A,5638.1961,N,01627.8900,E,21.08,18.56,150711,,,A*69
$GPGGA,100304.000,5638.2016,N,01627.8932,E,1,09,1.2,12.2,M,31.2,M,,0000*6E
$GPGSA,A,3,15,26,28,27,09,18,17,08,11,,,,2.0,1.2,1.6*35
$GPRMC,100304.000,A,5638.2016,N,01627.8932,E,20.63,18.42,150711,,,A*6C
$GPGGA,100305.000,5638.2065,N,01627.8960,E,1,09,1.2,12.5,M,31.2,M,,0000*6B
$GPGSA,A,3,15,26,28,27,09,18,17,08,11,,,,2.0,1.2,1.6*35
$GPGSV,3,1,11,15,66,254,41,26,54,162,48,28,54,070,46,27,50,273,42*7B
$GPGSV,3,2,11,09,29,273,40,18,25,305,40,17,25,130,35,08,15,088,28*77
$GPGSV,3,3,11,11,07,045,24,19,10,023,25,22,08,336,34*4F
$GPRMC,100305.000,A,5638.2065,N,01627.8960,E,18.11,18.04,150711,,,A*62
$GPGGA,100306.000,5638.2116,N,01627.8991,E,1,08,1.3,12.7,M,31.2,M,,0000*61
$GPGSA,A,3,15,26,28,27,09,18,17,08,,,,,2.2,1.3,1.7*37
$GPRMC,100306.000,A,5638.2116,N,01627.8991,E,18.15,19.02,150711,,,A*69
$GPGGA,100307.000,5638.2165,N,01627.9025,E,1,08,1.3,13.0,M,31.2,M,,0000*65
$GPGSA,A,3,15,26,28,27,09,18,17,08,,,,,2.2,1.3,1.7*37
$GPRMC,100307.000,A,5638.2165,N,01627.9025,E,17.43,20.57,150711,,,A*6D
$GPGGA,100308.000,5638.2208,N,01627.9055,E,1,08,1.3,12.7,M,31.2,M,,0000*63
$GPGSA,A,3,15,26,28,27,09,18,17,08,,,,,2.2,1.3,1.7*37
$GPRMC,100308.000,A,5638.2208,N,01627.9055,E,16.77,21.34,150711,,,A*6F
$GPGGA,100309.000,5638.2251,N,01627.9088,E,1,08,1.3,12.0,M,31.2,M,,0000*69
$GPGSA,A,3,15,26,28,27,09,18,17,08,,,,,2.2,1.3,1.7*37
$GPRMC,100309.000,A,5638.2251,N,01627.9088,E,16.50,21.37,150711,,,A*64
$GPGGA,100310.000,5638.2293,N,01627.9117,E,1,09,1.2,12.0,M,31.2,M,,0000*68
$GPGSA,A,3,15,26,28,27,09,18,17,08,11,,,,2.0,1.2,1.6*35
$GPGSV,3,1,11,15,66,253,48,26,54,162,49,28,54,069,49,27,50,273,45*74
$GPGSV2,11,09,29,273,46,18,25,304,47,17,25,129,43,08,15,088,36*71
$GPGSV,3,3,11,11,07,045,28,19,10,023,,22,08,336,*43
$GPRMC,100310.000,A,5638.2293,N,01627.9117,E,15.74,21.67,150711,,,A*65
$GPGGA,100311.000,5638.2334,N,01627.9145,E,1,09,1.2,12.0,M,31.2,M,,0000*62
$GPGSA,A,3,15,26,28,27,09,18,17,08,11,,,,2.0,1.2,1.6*35
$GPRMC,100311.000,A,5638.2334,N,01627.9145,E,15.32,22.30,150711,,,A*6C
$GPGGA,100312.000,5638.2369,N,01627.9175,E,1,09,1.2,11.8,M,31.2,M,,0000*61
$GPGSA,A,3,15,26,28,27,09,18,17,08,11,,,,2.0,1.2,1.6*35
$GPRMC,100312.000,A,5638.2369,N,01627.9175,E,12.63,23.26,150711,,,A*61
$GPGGA,100313.000,5638.2398,N,01627.9200,E,1,09,1.2,12.0,M,31.2,M,,0000*64
$GPGSA,A,3,15,26,28,27,09,18,17,08,11,,,,2.0,1.2,1.6*35
$GPRMC,100313.000,A,5638.2398,N,01627.9200,E,10.18,25.42,150711,,,A*65
$GPGGA,100314.000,5638.2417,N,01627.9218,E,1,09,1.2,12.6,M,31.2,M,,0000*6C
$GPGSA,A,3,15,26,28,27,09,18,17,08,11,,,,2.0,1.2,1.6*35
$GPRMC,100314.000,A,5638.2417,N,01627.9218,E,6.72,25.65,150711,,,A*55
$GPGGA,100315.000,5638.2429,N,01627.9231,E,1,09,1.2,13.2,M,31.2,M,,0000*6E
$GPGSA,A,3,15,26,28,27,09,18,17,08,11,,,,2.0,1.2,1.7*34
$GPGSV,3,1,11,15,66,253,44,26,54,162,49,28,54,069,49,27,50,273,45*78
$GPGSV,3,2,11,09,29,273,41,18,25,304,37,17,25,129,38,08,15,088,44*78
$GPGSV,3,3,11,11,07,045,32,19,10,023,,22,08,336,*48
$GPRMC,100315.000,A,5638.2429,N,01627.9231,E,4.48,26.09,150711,,,A*50
$GPGGA,100316.000,5638.2435,N,01627.9237,E,1,09,1.2,13.6,M,31.2,M,,0000*62
$GPGSA,A,3,15,26,28,27,09,18,17,08,11,,,,2.0,1.2,1.7*34
$GPRMC,100316.000,A,5638.2435,N,01627.9237,E,2.10,26.27,150711,,,A*5F
$GPGGA,100317.000,5638.2439,N,01627.9242,E,1,09,1.2,13.7,M,31.2,M,,0000*6C
$GPGSA,A,3,15,26,28,27,09,18,17,08,11,,,,2.0,1.2,1.7*34
$GPRMC,100317.000,A,5638.2439,N,01627.9242,E,1.14,26.27,150711,,,A*57
$GPGGA,100318.000,5638.2442,N,01627.9246,E,1,09,1.2,14.3,M,31.2,M,,0000*68
$GPGSA,A,3,15,26,28,27,09,18,17,08,11,,,,2.0,1.2,1.7*34
$GPRMC,100318.000,A,5638.2442,N,01627.9246,E,2.18,26.90,150711,,,A*53
$GPGGA,100319.000,5638.2452,N,01627.9254,E,1,09,1.2,14.5,M,31.2,M,,0000*6D
$GPGSA,A,3,15,26,28,27,09,18,17,08,11,,,,2.0,1.2,1.7*34
$GPRMC,100319.000,A,5638.2452,N,01627.9254,E,6.39,20.87,150711,,,A*57
$GPGGA,100320.000,5638.2471,N,01627.9259,E,1,09,1.2,14.6,M,31.2,M,,0000*68
$GPGSA,A,3,15,26,28,27,09,18,17,08,11,,,,2.0,1.2,1.7*34
$GPGSV,3,1,11,15,66,253,45,26,53,162,49,28,53,069,49,27,50,273,43*7F
$GPGSV,3,2,11,09,29,273,37,18,25,304,38,17,25,129,48,08,15,088,45*70
$GPGSV,3,3,11,11,07,045,36,22,08,336,38,19,10,023,*47
$GPRMC,100320.000,A,5638.2471,N,01627.9259,E,8.19,8.00,150711,,,A*68
$GPGGA,100321.000,5638.2494,N,01627.9250,E,1,09,1.2,14.9,M,31.2,M,,0000*64
$GPGSA,A,3,15,26,28,27,09,18,17,08,11,,,,2.0,1.2,1.7*34
$GPRMC,100321.000,A,5638.2494,N,01627.9250,E,9.61,352.20,150711,,,A*6B
$GPGGA,100322.000,5638.2518,N,01627.9232,E,1,09,1.2,14.7,M,31.2,M,,0000*68
$GPGSA,A,3,15,26,28,27,09,18,17,08,11,,,,2.0,1.2,1.7*34
$GPRMC,100322.000,A,5638.2518,N,01627.9232,E,8.99,341.76,150711,,,A*6E
$GPGGA,100323.000,5638.2541,N,01627.9207,E,1,09,1.2,14.9,M,31.2,M,,0000*6D
$GPGSA,A,3,15,26,28,27,09,18,17,08,11,,,,2.0,1.2,1.7*34
$GPRMC,100323.000,A,5638.2541,N,01627.9207,E,10.45,335.00,150711,,,A*5F
$GPGGA,100324.000,5638.2569,N,01627.9174,E,1,09,1.2,15.2,M,31.2,M,,0000*6D
$GPGSA,A,3,15,26,28,27,09,18,17,08,11,,,,2.0,1.2,1.7*34
$GPRMC,100324.000,A,5638.2569,N,01627.9174,E,12.63,329.45,150711,,,A*5F
$GPGGA,100325.000,5638.2603,N,01627.9135,E,1,09,1.2,15.2,M,31.2,M,,0000*66
$GPGSA,A,3,15,26,28,27,09,18,17,08,11,,,,2.0,1.2,1.7*34
$GPGSV,3,1,11,15,66,253,47,26,53,162,49,28,53,069,49,27,50,273,47*79
$GPGSV,3,2,11,09,29,273,39,18,25,304,39,17,25,129,39,08,15,088,40*7C
$GPGSV,3,3,11,11,07,045,30,22,08,336,31,19,10,023,*48
$GPRMC,100325.000,A,5638.2603,N,01627.9135,E,15.38,328.40,150711,,,A*59
$GPGGA,100326.000,5638.2642,N,01627.9089,E,1,09,1.2,15.1,M,31.2,M,,0000*65
$GPGSA,A,3,15,26,28,27,09,18,17,08,11,,,,2.0,1.2,1.7*34
$GPRMC,100326.000,A,5638.2642,N,01627.9089,E,16.89,327.59,150711,,,A*57
$GPGGA,100327.000,5638.2680,N,01627.9043,E,1,09,1.2,15.0,M,31.2,M,,0000*6D
$GPGSA,A,3,15,26,28,27,09,18,17,08,11,,,,2.0,1.2,1.7*34
$GPRMC,100327.000,A,5638.2680,N,01627.9043,E,16.18,326.69,150711,,,A*54
$GPGGA,100328.000,5638.2719,N,01627.8996,E,1,09,1.2,15.0,M,31.2,M,,0000*63
$GPGSA,A,3,15,26,28,27,09,18,17,08,11,,,,2.0,1.2,1.7*34
$GPRMC,100328.000,A,5638.2719,N,01627.8996,E,17.10,326.59,150711,,,A*50
$GPGGA,100329.000,5638.2761,N,01627.8946,E,1,09,1.2,15.0,M,31.2,M,,0000*60
$GPGSA,A,3,15,26,28,27,09,18,17,08,11,,,,2.0,1.2,1.7*34
$GPRMC,100329.000,A,5638.2761,N,01627.8946,E,18.87,326.71,150711,,,A*58
$GPGGA,100330.000,5638.2805,N,01627.8892,E,1,09,1.2,15.0,M,31.2,M,,0000*6D
$GPGSA,A,3,15,26,28,27,09,18,17,08,11,,,,2.0,1.2,1.7*34
$GPGSV,3,1,11,15,66,253,47,26,53,162,49,28,53,069,48,27,50,273,46*79
$GPGSV,3,2,1,09,29,273,42,18,25,304,40,17,25,129,40,08,15,088,44*74
$GPGSV,3,3,11,11,07,045,32,22,08,336,36,19,10,023,*4D
$GPRMC,100330.000,A,5638.2805,N,01627.8892,E,19.81,326.36,150711,,,A*51
$GPGGA,100331.000,5638.2854,N,01627.8833,E,1,09,1.2,14.4,M,31.2,M,,0000*66
$GPGSA,A,3,15,26,28,27,09,18,17,08,11,,,,2.0,1.2,1.7*34
$GPRMC,100331.000,A,5638.2854,N,01627.8833,E,21.63,326.50,150711,,,A*58
$GPGGA,100332.000,5638.2907,N,01627.8772,E,1,08,1.3,14.1,M,31.2,M,,0000*6D
$GPGSA,A,3,15,26,28,27,09,18,17,08,,,,,2.2,1.3,1.7*37
$GPRMC,100332.000,A,5638.2907,N,01627.8772,E,22.84,327.67,150711,,,A*59
$GPGGA,100333.000,5638.2961,N,01627.8708,E,1,08,1.2,13.9,M,31.2,M,,0000*6F
$GPGSA,A,3,15,26,28,27,09,18,17,11,,,,,2.1,1.2,1.7*3D
$GPRMC,100333.000,A,5638.2961,N,01627.8708,E,23.66,328.32,150711,,,A*57
$GPGGA,100334.000,5638.3015,N,01627.8648,E,1,09,1.2,12.9,M,31.2,M,,0000*66
$GPGSA,A,3,15,26,28,27,09,18,17,08,11,,,,2.0,1.2,1.7*34
$GPRMC,100334.000,A,5638.3015,N,01627.8648,E,23.18,328.32,150711,,,A*57
$GPGGA,100335.000,5638.3068,N,01627.8590,E,1,09,1.2,12.3,M,31.2,M,,0000*61
$GPGSA,A,3,15,26,28,27,09,18,17,08,11,,,,2.0,1.2,1.7*34
$GPGSV,3,1,11,15,66,253,48,26,53,162,49,28,53,069,48,27,50,273,47*77
$GPGSV,3,2,11,09,29,273,41,18,25,304,33,17,25,129,41,08,15,088,32*73
$GPGSV,3,3,11,11,07,045,35,22,08,336,40,19,10,023,*4B
$GPRMC,100335.000,A,5638.3068,N,01627.8590,E,22.16,330.09,150711,,,A*54
$GPGGA,100336.000,5638.3123,N,01627.8537,E,1,09,1.2,12.2,M,31.2,M,,0000*60
$GPGSA,A,3,15,26,28,27,09,18,17,08,11,,,,2.0,1.2,1.7*34
$GPRMC,100336.000,A,5638.3123,N,01627.8537,E,22.79,332.19,150711,,,A*5E
$GPGGA,100337.000,5638.3182,N,01627.8487,E,1,09,1.2,11.9,M,31.2,M,,0000*68
$GPGSA,A,3,15,26,28,27,09,18,17,08,11,,,,2.0,1.2,1.7*34
$GPRMC,100337.000,A,5638.3182,N,01627.8487,E,24.06,334.16,150711,,,A*59
$GPGGA,100338.000,5638.3245,N,01627.8437,E,1,09,1.2,11.5,M,31.2,M,,0000*68
$GPGSA,A,3,15,26,28,27,09,18,17,08,11,,,,2.0,1.2,1.7*34
$GPRMC,100338.000,A,5638.3245,N,01627.8437,E,24.95,336.70,150711,,,A*5D
$GPGGA,100339.000,5638.3312,N,01627.8390,E,1,09,1.2,10.8,M,31.2,M,,0000*6C
$GPGSA,A,3,15,26,28,27,09,18,17,08,11,,,,2.0,1.2,1.7*34
$GPRMC,100339.000,A,5638.3312,N,01627.8390,E,26.35,339.49,150711,,,A*58
$GPGGA,100340.000,5638.3381,N,01627.8344,E,1,09,1.2,10.8,M,31.2,M,,0000*61
$GPGSA,A,3,15,28,26,27,09,18,17,08,11,,,,2.0,1.2,1.7*34
$GPGSV,3,1,11,15,66,253,48,28,53,069,49,26,53,162,49,27,50,273,47*76
$GPGSV,2,11,09,29,273,48,18,25,304,44,17,25,129,42,08,15,088,42*7E
$GPGSV,3,3,11,11,07,044,33,22,08,335,40,19,10,023,*4F
$GPRMC,100340.000,A,5638.3381,N,01627.8344,E,26.30,341.05,150711,,,A*57
$GPGGA,100341.000,5638.3450,N,01627.8301,E,1,09,1.2,10.6,M,31.2,M,,0000*64
$GPGSA,A,3,15,28,26,27,09,18,17,08,11,,,,2.0,1.2,1.7*34
$GPRMC,100341.000,A,5638.3450,N,01627.8301,E,26.16,342.84,150711,,,A*52
$GPGGA,100342.000,5638.3519,N,01627.8264,E,1,09,1.2,10.5,M,31.2,M,,0000*6A
$GPGSA,A,3,15,28,26,27,09,18,17,08,11,,,,2.0,1.2,1.7*34
$GPRMC,100342.000,A,5638.3519,N,01627.8264,E,25.96,344.92,150711,,,A*55
$GPGGA,100343.000,5638.3590,N,01627.8232,E,1,09,1.2,10.7,M,31.2,M,,0000*6B
$GPGSA,A,3,15,28,26,27,09,18,17,08,11,,,,2.0,1.2,1.7*34
$GPRMC,100343.000,A,5638.3590,N,01627.8232,E,26.91,347.12,150711,,,A*59
$GPGGA,100344.000,5638.3663,N,01627.8205,E,1,09,1.2,10.6,M,31.2,M,,0000*66
$GPGSA,A,3,15,28,26,27,09,18,17,08,11,,,,2.0,1.2,1.7*34
$GPRMC,100344.000,A,5638.3663,N,01627.8205,E,27.33,350.91,150711,,,A*51
$GPGGA,100345.000,5638.3737,N,01627.8186,E,1,09,1.2,10.7,M,31.2,M,,0000*6E
$GPGSA,A,3,15,28,26,27,09,18,17,08,11,,,,2.0,1.2,1.7*34
$GPGSV,3,1,11,15,66,253,48,28,53,069,50,26,53,162,49,27,50,273,48*71
$GPGSV,3,2,11,09,29,273,44,18,25,304,44,17,25,129,43,08,15,088,42*73
$GPGSV,3,3,11,11,07,044,23,22,08,335,33,19,10,023,*4A
$GPRMC,100345.000,A,5638.3737,N,01627.8186,E,27.11,353.44,150711,,,A*53
$GPGGA,100346.000,5638.3813,N,01627.8174,E,1,09,1.2,10.6,M,31.2,M,,0000*68
$GPGSA,A,3,15,28,26,27,09,17,18,08,11,,,,2.0,1.2,1.7*34
$GPRMC,100346.000,A,5638.3813,N,01627.8174,E,27.20,355.98,150711,,,A*51
$GPGGA,100347.000,5638.3890,N,01627.8169,E,1,08,1.3,10.8,M,31.2,M,,0000*60
$GPGSA,A,3,15,28,26,27,09,17,18,08,,,,,2.2,1.3,1.7*37
$GPRMC,100347.000,A,5638.3890,N,01627.8169,E,28.29,358.84,150711,,,A*51
$GPGGA,100348.000,5638.3969,N,01627.8169,E,1,09,1.2,10.5,M,31.2,M,,0000*65
$GPGSA,A,3,15,28,26,27,09,17,18,08,11,,,,2.0,1.2,1.7*34
$GPRMC,100348.000,A,5638.3969,N,01627.8169,E,27.64,0.18,150711,,,A*54
$GPGGA,100349.000,5638.4047,N,01627.8174,E,1,09,1.2,10.5,M,31.2,M,,0000*6A
$GPGSA,A,3,15,28,26,27,09,17,18,08,11,,,,2.0,1.2,1.7*34
$GPRMC,100349.000,A,5638.4047,N,01627.8174,E,28.72,2.60,150711,,,A*5E
$GPGGA,100350.000,5638.4129,N,01627.8186,E,1,09,1.2,10.5,M,31.2,M,,0000*66
$GPGSA,A,3,15,28,26,27,09,17,18,08,11,,,,2.0,1.2,1.7*34
$GPGSV,3,1,11,15,66,253,48,28,53,069,50,26,53,162,49,27,50,273,48*71
$GPGSV,3,2,11,09,29,273,45,17,25,129,38,18,25,304,44,08,15,088,43*7F
$GPGSV,3,3,11,11,07,044,34,22,08,335,35,19,10,023,*4A
$GPRMC,100350.000,A,5638.4129,N,01627.8186,E,29.41,4.94,150711,,,A*5E
$GPGGA,100351.000,5638.4210,N,01627.8203,E,1,09,1.2,10.5,M,31.2,M,,0000*60
$GPGSA,A,3,15,28,26,27,09,17,18,08,11,,,,2.0,1.2,1.7*34
$GPRMC,100351.000,A,5638.4210,N,01627.8203,E,29.64,7.58,150711,,,A*5C
$GPGGA,100352.000,5638.4290,N,01627.8227,E,1,09,1.2,10.2,M,31.2,M,,0000*6A
$GPGSA,A,3,15,28,26,27,09,17,18,08,11,,,,2.0,1.2,1.7*34
$GPRMC,100352.000,A,5638.4290,N,01627.8227,E,29.84,10.38,150711,,,A*6F
$GPGGA,100353.000,5638.4370,N,01627.8257,E,1,09,1.2,10.4,M,31.2,M,,0000*65
$GPGSA,A,3,15,28,26,27,09,17,18,08,11,,,,2.0,1.2,1.7*34
$GPRMC,100353.000,A,5638.4370,N,01627.8257,E,29.81,12.90,150711,,,A*63
$GPGGA,100354.000,5638.4451,N,01627.8295,E,1,09,1.2,10.1,M,31.2,M,,0000*6D
$GPGSA,A,3,15,28,26,27,09,17,18,08,11,,,,2.0,1.2,1.7*34
$GPRMC,100354.000,A,5638.4451,N,01627.8295,E,30.17,15.29,150711,,,A*6C
$GPGGA,100355.000,5638.4531,N,01627.8339,E,1,09,1.2,9.8,M,31.2,M,,0000*5D
$GPGSA,A,3,15,28,26,27,09,17,18,08,11,,,,2.0,1.2,1.7*34
$GPGSV,3,1,11,15,66,253,48,28,53,069,50,26,53,162,49,27,50,273,48*71
$GPGSV,3,2,11,09,29,273,41,17,25,129,45,18,25,304,44,08,15,088,42*70
$GPGSV,3,3,11,11,07,044,34,22,08,335,38,19,10,023,*47
$GPRMC,100355.000,A,5638.4531,N,01627.8339,E,30.86,16.80,150711,,,A*65
$GPGGA,100356.000,5638.4614,N,01627.8386,E,1,09,1.2,9.5,M,31.2,M,,0000*53
$GPGSA,A,3,15,28,26,27,09,17,18,08,11,,,,2.0,1.2,1.7*34
$GPRMC,100356.000,A,5638.4614,N,01627.8386,E,31.81,17.77,150711,,,A*69
$GPGGA,100357.000,5638.4700,N,01627.8437,E,1,09,1.2,9.5,M,31.2,M,,0000*5B
$GPGSA,A,3,15,28,26,27,09,17,18,08,11,,,,2.0,1.2,1.7*34
$GPRMC,100357.000,A,5638.4700,N,01627.8437,E,32.73,18.30,150711,,,A*63
$GPGGA,100358.000,5638.4787,N,01627.8490,E,1,09,1.2,9.8,M,31.2,M,,0000*5B
$GPGSA,A,3,15,28,26,27,09,17,18,08,11,,,,2.0,1.2,1.7*34
$GPRMC,100358.000,A,5638.4787,N,01627.8490,E,33.43,19.20,150711,,,A*6C
$GPGGA,100359.000,5638.4875,N,01627.8544,E,1,09,1.2,10.1,M,31.2,M,,0000*61
$GPGSA,A,3,15,28,26,27,09,17,18,08,11,,,,2.0,1.2,1.7*34
$GPRMC,100359.000,A,5638.4875,N,01627.8544,E,33.98,19.17,150711,,,A*65
$GPGGA,100400.000,5638.4963,N,01627.8599,E,1,09,1.2,9.9,M,31.2,M,,0000*5C
$GPGSA,A,3,15,28,26,27,09,17,18,08,11,,,,2.0,1.2,1.7*34
$GPGSV,3,1,11,15,66,253,48,28,53,069,50,26,53,162,49,27,50,273,47*7E
$GPGSV,31,09,29,273,42,17,25,129,46,18,25,304,40,08,15,088,43*75
$GPGSV,3,3,11,11,07,044,36,19,10,023,,22,08,335,*4E
$GPRMC,100400.000,A,5638.4963,N,01627.8599,E,33.26,18.66,150711,,,A*6A
$GPGGA,100401.000,5638.5050,N,01627.8653,E,1,09,1.2,9.6,M,31.2,M,,0000*5F
$GPGSA,A,3,15,28,26,27,09,17,18,08,11,,,,2.0,1.2,1.7*34
$GPRMC,100401.000,A,5638.5050,N,01627.8653,E,33.21,18.64,150711,,,A*63
$GPGGA,100402.000,5638.5138,N,01627.8705,E,1,09,1.2,9.4,M,31.2,M,,0000*53
$GPGSA,A,3,15,28,26,27,09,17,18,08,11,,,,2.0,1.2,1.7*34
$GPRMC,100402.000,A,5638.5138,N,01627.8705,E,33.37,16.97,150711,,,A*68
$GPGGA,100403.000,5638.5227,N,01627.8753,E,1,09,1.2,9.5,M,31.2,M,,0000*5D
$GPGSA,A,3,15,28,26,27,09,17,18,08,11,,,,2.0,1.2,1.7*34
$GPRMC,100403.000,A,5638.5227,N,01627.8753,E,33.21,16.25,150711,,,A*69
$GPGGA,100404.000,5638.5316,N,01627.8796,E,1,09,1.2,9.7,M,31.2,M,,0000*52
$GPGSA,A,3,15,28,26,27,09,17,18,08,11,,,,2.0,1.2,1.7*34
$GPRMC,100404.000,A,5638.5316,N,01627.8796,E,33.02,15.08,150711,,,A*69
$GPGGA,100405.000,5638.5404,N,01627.8838,E,1,09,1.2,10.0,M,31.2,M,,0000*63
$GPGSA,A,3,15,28,26,27,09,17,18,08,11,,,,2.0,1.2,1.7*34
$GPGSV,3,1,11,15,66,253,48,28,53,069,50,26,53,162,49,27,50,273,46*7F
$GPGSV,3,2,11,09,29,273,43,17,25,129,45,18,25,304,43,08,15,088,43*74
$GPGSV,3,3,11,11,07,044,36,22,08,335,36,19,10,023,*4B
$GPRMC,100405.000,A,5638.5404,N,01627.8838,E,32.08,15.51,150711,,,A*60
$GPGGA,100406.000,5638.5489,N,01627.8880,E,1,09,1.2,10.0,M,31.2,M,,0000*66
$GPGSA,A,3,15,28,26,27,09,17,18,08,11,,,,2.0,1.2,1.7*34
$GPRMC,100406.000,A,5638.5489,N,01627.8880,E,31.30,15.15,150711,,,A*6D
$GPGGA,100407.000,5638.5572,N,01627.8920,E,1,08,1.3,9.7,M,31.2,M,,0000*56
$GPGSA,A,3,15,28,26,27,09,17,18,08,,,,,2.2,1.3,1.7*37
$GPRMC,100407.000,A,5638.5572,N,01627.8920,E,30.65,14.65,150711,,,A*65
$GPGGA,100408.000,5638.5654,N,01627.8959,E,1,09,1.2,9.5,M,31.2,M,,0000*52
$GPGSA,A,3,15,28,26,27,09,17,18,08,11,,,,2.0,1.2,1.7*34
$GPRMC,100408.000,A,5638.5654,N,01627.8959,E,30.23,15.19,150711,,,A*6B
$GPGGA,100409.000,5638.5735,N,01627.8999,E,1,09,1.2,9.5,M,31.2,M,,0000*59
$GPGSA,A,3,15,28,26,27,09,17,18,08,11,,,,2.0,1.2,1.7*34
$GPRMC,100409.000,A,5638.5735,N,01627.8999,E,30.13,15.15,150711,,,A*6F
$GPGGA,100410.000,5638.5816,N,01627.9037,E,1,09,1.2,9.6,M,31.2,M,,0000*50
$GPGSA,A,3,15,28,26,27,09,17,18,08,11,,,,2.0,1.2,1.7*34
$GPGSV,3,1,11,15,66,252,48,28,53,069,50,26,53,162,49,27,50,273,47*7F
$GPGSV,3,11,09,29,273,45,17,25,129,44,18,25,304,45,08,14,088,45*72
$GPGSV,3,3,11,11,07,044,40,22,08,335,42,19,10,023,*49
$GPRMC,100410.000,A,5638.5816,N,01627.9037,E,29.69,14.14,150711,,,A*60
$GPGGA,100411.000,5638.5894,N,01627.9070,E,1,09,1.2,10.0,M,31.2,M,,0000*66
$GPGSA,A,3,15,28,26,27,09,17,18,08,11,,,,2.0,1.2,1.7*34
$GPRMC,100411.000,A,5638.5894,N,01627.9070,E,29.07,14.06,150711,,,A*63
$GPGGA,100412.000,5638.5972,N,01627.9106,E,1,09,1.2,10.2,M,31.2,M,,0000*6E
$GPGSA,A,3,15,28,26,27,09,17,18,08,11,,,,2.0,1.2,1.7*34
$GPRMC,100412.000,A,5638.5972,N,01627.9106,E,29.11,14.94,150711,,,A*65
$GPGGA,100413.000,5638.6050,N,01627.9144,E,1,09,1.2,10.7,M,31.2,M,,0000*66
$GPGSA,A,3,15,28,26,27,09,17,18,08,11,,,,2.0,1.2,1.7*34
$GPRMC,100413.000,A,5638.6050,N,01627.9144,E,29.14,15.36,150711,,,A*64
$GPGGA,100414.000,5638.6127,N,01627.9181,E,1,09,1.2,10.8,M,31.2,M,,0000*66
$GPGSA,A,3,15,28,26,27,09,17,18,08,11,,,,2.0,1.2,1.7*34
$GPRMC,100414.000,A,5638.6127,N,01627.9181,E,28.82,15.08,150711,,,A*68
$GPGGA,100415.000,5638.6206,N,01627.9220,E,1,09,1.2,10.6,M,31.2,M,,0000*61
$GPGSA,A,3,15,28,26,27,09,17,18,08,11,,,,2.0,1.2,1.7*34
$GPGSV,3,1,11,15,66,252,49,28,53,069,50,26,53,162,49,27,50,273,48*71
$GPGSV,3,2,11,09,29,273,47,17,25,129,46,18,25,304,46,08,14,088,40*74
$GPGSV,3,3,11,11,07,044,23,22,08,335,40,19,10,023,*4E
$GPRMC,100415.000,A,5638.6206,N,01627.9220,E,29.51,15.04,150711,,,A*62
$GPGGA,100416.000,5638.6285,N,01627.9258,E,1,09,1.2,10.3,M,31.2,M,,0000*63
$GPGSA,A,3,15,28,26,27,09,17,18,08,11,,,,2.0,1.2,1.7*34
$GPRMC,100416.000,A,5638.6285,N,01627.9258,E,29.43,14.63,150711,,,A*66
$GPGGA,100417.000,5638.6364,N,01627.9295,E,1,09,1.2,10.3,M,31.2,M,,0000*6D
$GPGSA,A,3,15,28,26,27,09,17,18,08,11,,,,2.0,1.2,1.7*34
$GPRMC,100417.000,A,5638.6364,N,01627.9295,E,29.19,14.79,150711,,,A*6C
$GPGGA,100418.000,5638.6442,N,01627.9332,E,1,09,1.2,9.9,M,31.2,M,,0000*5F
$GPGSA,A,3,15,28,26,27,09,17,18,08,11,,,,2.0,1.2,1.7*34
$GPRMC,100418.000,A,5638.6442,N,01627.9332,E,28.33,14.55,150711,,,A*6B
$GPGGA,100419.000,5638.6518,N,01627.9369,E,1,09,1.2,9.6,M,31.2,M,,0000*51
$GPGSA,A,3,15,28,26,27,09,17,18,08,11,,,,2.0,1.2,1.7*34
$GPRMC,100419.000,A,5638.6518,N,01627.9369,E,28.81,14.91,150711,,,A*6B
$GPGGA,100420.000,5638.6595,N,01627.9407,E,1,09,1.2,9.1,M,31.2,M,,0000*56
$GPGSA,A,3,15,28,26,27,09,17,18,08,11,,,,2.0,1.2,1.7*34
$GPGSV,3,1,11,15,66,252,49,28,53,069,50,26,53,162,49,27,50,273,48*71
$GPGSV,11,09,29,273,47,17,25,129,43,18,25,304,46,08,14,088,36*70
$GPGSV,3,3,11,11,07,044,31,22,08,335,41,19,10,023,*4C
$GPRMC,100420.000,A,5638.6595,N,01627.9407,E,28.20,15.53,150711,,,A*6F
$GPGGA,100421.000,5638.6671,N,01627.9447,E,1,09,1.2,8.6,M,31.2,M,,0000*5C
$GPGSA,A,3,15,28,26,27,09,17,18,08,11,,,,2.0,1.2,1.7*34
$GPRMC,100421.000,A,5638.6671,N,01627.9447,E,28.48,15.78,150711,,,A*64
$GPGGA,100422.000,5638.6748,N,01627.9487,E,1,09,1.2,8.4,M,31.2,M,,0000*5A
$GPGSA,A,3,15,28,26,27,09,17,18,08,11,,,,2.0,1.2,1.7*34
$GPRMC,100422.000,A,5638.6748,N,01627.9487,E,28.68,16.21,150711,,,A*6D
$GPGGA,100423.000,5638.6824,N,01627.9528,E,1,09,1.2,8.3,M,31.2,M,,0000*5D
$GPGSA,A,3,15,28,26,27,09,17,18,08,11,,,,2.0,1.2,1.7*34
$GPRMC,100423.000,A,5638.6824,N,01627.9528,E,28.59,16.99,150711,,,A*6C
$GPGGA,100424.000,5638.6900,N,01627.9568,E,1,09,1.2,8.6,M,31.2,M,,0000*5C
$GPGSA,A,3,15,28,26,27,09,17,18,08,11,,,,2.0,1.2,1.7*34
$GPRMC,100424.000,A,5638.6900,N,01627.9568,E,28.55,16.44,150711,,,A*64
$GPGGA,100425.000,5638.6976,N,01627.9605,E,1,09,1.2,8.8,M,31.2,M,,0000*5A
$GPGSA,A,3,15,28,26,27,09,17,18,08,11,,,,2.0,1.2,1.7*34
$GPGSV,3,1,11,15,66,252,48,28,53,069,50,26,53,162,49,27,50,273,48*70
$GPGSV,3,2,11,09,29,273,47,17,25,129,45,18,25,304,46,08,14,088,44*73
$GPGSV,3,3,11,11,07,044,33,22,08,335,41,19,10,023,*4E
$GPRMC,100425.000,A,5638.6976,N,01627.9605,E,28.41,14.24,150711,,,A*6D
$GPGGA,100426.000,5638.7052,N,01627.9633,E,1,09,1.2,9.0,M,31.2,M,,0000*5B
$GPGSA,A,3,15,28,26,27,09,17,18,08,11,,,,2.0,1.2,1.7*34
$GPRMC,100426.000,A,5638.7052,N,01627.9633,E,28.32,10.46,150711,,,A*61
$GPGGA,100427.000,5638.7130,N,01627.9653,E,1,09,1.2,9.1,M,31.2,M,,0000*58
$GPGSA,A,3,15,28,26,27,09,17,18,08,11,,,,2.0,1.2,1.7*34
$GPRMC,100427.000,A,5638.7130,N,01627.9653,E,28.33,5.46,150711,,,A*56
$GPGGA,100428.000,5638.7208,N,01627.9657,E,1,09,1.2,8.9,M,31.2,M,,0000*52
$GPGSA,A,3,15,28,26,27,09,17,18,08,11,,,,2.0,1.2,1.7*34
$GPRMC,100428.000,A,5638.7208,N,01627.9657,E,28.32,358.94,150711,,,A*50
$GPGGA,100429.000,5638.7286,N,01627.9644,E,1,09,1.2,8.7,M,31.2,M,,0000*59
$GPGSA,A,3,15,28,26,27,09,17,18,08,11,,,,2.0,1.2,1.7*34
$GPRMC,100429.000,A,5638.7286,N,01627.9644,E,28.26,351.76,150711,,,A*55
$GPGGA,100430.000,5638.7362,N,01627.9612,E,1,09,1.2,8.5,M,31.2,M,,0000*5B
$GPGSA,A,3,15,28,26,27,09,17,18,08,11,,,,2.0,1.2,1.7*34
$GPGSV,3,1,11,15,66,252,48,28,53,069,50,26,53,162,49,27,50,273,48*70
$GPGSV,3,2,11,09,29,273,48,17,25,129,45,18,25,304,47,08,14,088,34*7A
$GPGSV,3,3,11,11,07,044,45,22,08,335,39,19,10,023,*40
$GPRMC,100430.000,A,5638.7362,N,01627.9612,E,28.61,344.44,150711,,,A*53
$GPGGA,100431.000,5638.7438,N,01627.9566,E,1,09,1.2,8.4,M,31.2,M,,0000*53
$GPGSA,A,3,15,28,26,27,09,17,18,08,11,,,,2.0,1.2,1.7*34
$GPRMC,100431.000,A,5638.7438,N,01627.9566,E,28.99,340.22,150711,,,A*59
$GPGGA,100432.000,5638.7514,N,01627.9509,E,1,09,1.2,8.2,M,31.2,M,,0000*50
$GPGSA,A,3,15,28,26,27,09,17,18,08,11,,,,2.0,1.2,1.7*34
$GPRMC,100432.000,A,5638.7514,N,01627.9509,E,29.83,336.22,150711,,,A*57
$GPGGA,100433.000,5638.7589,N,01627.9445,E,1,09,1.2,8.1,M,31.2,M,,0000*5F
$GPGSA,A,3,15,28,26,27,09,17,18,08,11,,,,2.0,1.2,1.7*34
$GPRMC,100433.000,A,5638.7589,N,01627.9445,E,29.74,334.74,150711,,,A*52
$GPGGA,100434.000,5638.7664,N,01627.9381,E,1,09,1.2,7.9,M,31.2,M,,0000*50
$GPGSA,A,3,15,28,26,27,09,17,18,08,11,,,,2.0,1.2,1.7*34
$GPRMC,100434.000,A,5638.7664,N,01627.9381,E,30.11,335.03,150711,,,A*50
$GPGGA,100435.000,5638.7739,N,01627.9317,E,1,08,1.2,7.7,M,31.2,M,,0000*58
$GPGSA,A,3,15,28,26,27,09,17,18,11,,,,,2.1,1.2,1.7*3D
$GPGSV,3,1,11,15,66,252,48,28,53,069,45,26,53,162,49,27,50,273,48*74
$GPGSV,3,2,11,09,29,273,47,17,25,129,35,18,25,304,43,11,07,044,39*71
$GPGSV,3,3,11,22,08,335,36,08,14,088,,19,10,023,*44
$GPRMC,100435.000,A,5638.7739,N,01627.9317,E,29.16,334.93,150711,,,A*50
$GPGGA,100436.000,5638.7811,N,01627.9256,E,1,09,1.2,7.7,M,31.2,M,,0000*5B
$GPGSA,A,3,15,28,26,27,09,17,18,08,11,,,,2.0,1.2,1.7*34
$GPRMC,100436.000,A,5638.7811,N,01627.9256,E,28.49,336.24,150711,,,A*57
$GPGGA,100437.000,5638.7883,N,01627.9200,E,1,09,1.2,8.4,M,31.2,M,,0000*5E
$GPGSA,A,3,15,28,26,27,09,17,18,08,11,,,,2.0,1.2,1.7*34
$GPRMC,100437.000,A,5638.7883,N,01627.9200,E,27.37,337.14,150711,,,A*5A
$GPGGA,100438.000,5638.7951,N,01627.9148,E,1,08,1.3,8.9,M,31.2,M,,0000*5D
$GPGSA,A,3,15,28,26,27,17,18,08,11,,,,,2.3,1.3,1.9*31
$GPRMC,100438.000,A,5638.7951,N,01627.9148,E,26.01,338.15,150711,,,A*5E
$GPGGA,100439.000,5638.8018,N,01627.9100,E,1,09,1.2,8.9,M,31.2,M,,0000*5B
$GPGSA,A,3,15,28,26,27,09,17,18,08,11,,,,2.0,1.2,1.7*34
$GPRMC,100439.000,A,5638.8018,N,01627.9100,E,25.46,339.62,150711,,,A*59
$GPGGA,100440.000,5638.8083,N,01627.9060,E,1,09,1.2,8.6,M,31.2,M,,0000*5F
$GPGSA,A,3,15,28,26,27,09,17,18,08,11,,,,2.0,1.2,1.7*34
$GPGSV,3,1,11,15,66,252,46,28,53,069,48,26,53,162,49,27,51,274,48*71
$GPGSV,311,09,29,273,45,17,26,129,43,18,25,304,45,08,14,088,43*70
$GPGSV,3,3,11,11,07,044,42,22,08,335,44,19,10,023,*4D
$GPRMC,100440.000,A,5638.8083,N,01627.9060,E,24.29,343.09,150711,,,A*5A
$GPGGA,100441.000,5638.8145,N,01627.9027,E,1,09,1.2,8.6,M,31.2,M,,0000*56
$GPGSA,A,3,15,28,26,27,09,17,18,08,11,,,,2.0,1.2,1.7*34
$GPRMC,100441.000,A,5638.8145,N,01627.9027,E,22.58,344.30,150711,,,A*5E
$GPGGA,100442.000,5638.8204,N,01627.8997,E,1,09,1.2,8.4,M,31.2,M,,0000*52
$GPGSA,A,3,15,28,26,27,09,17,18,08,11,,,,2.0,1.2,1.7*34
$GPRMC,100442.000,A,5638.8204,N,01627.8997,E,21.99,345.24,150711,,,A*52
$GPGGA,100443.000,5638.8260,N,01627.8971,E,1,09,1.2,8.6,M,31.2,M,,0000*5B
$GPGSA,A,3,15,28,26,27,09,17,18,08,11,,,,2.0,1.2,1.7*34
$GPRMC,100443.000,A,5638.8260,N,01627.8971,E,19.54,346.50,150711,,,A*53
$GPGGA,100444.000,5638.8312,N,01627.8948,E,1,09,1.2,8.6,M,31.2,M,,0000*52
$GPGSA,A,3,15,28,26,27,09,17,18,08,11,,,,2.0,1.2,1.7*34
$GPRMC,100444.000,A,5638.8312,N,01627.8948,E,18.92,346.39,150711,,,A*5E
$GPGGA,100445.000,5638.8362,N,01627.8926,E,1,09,1.2,8.7,M,31.2,M,,0000*5D
$GPGSA,A,3,15,28,26,27,09,17,18,08,11,,,,2.0,1.2,1.7*34
$GPGSV,3,1,11,15,66,252,48,28,53,069,49,26,53,162,49,27,51,274,49*7F
$GPGSV,3,2,11,09,29,273,47,17,26,129,45,18,25,304,46,08,14,088,45*71
$GPGSV,3,3,11,11,07,044,33,22,08,335,44,19,10,023,*4B
$GPRMC,100445.000,A,5638.8362,N,01627.8926,E,18.51,346.70,150711,,,A*52
$GPGGA,100446.000,5638.8411,N,01627.8905,E,1,09,1.2,8.6,M,31.2,M,,0000*5D
$GPGSA,A,3,15,28,26,27,09,17,18,08,11,,,,2.0,1.2,1.7*34
$GPRMC,100446.000,A,5638.8411,N,01627.8905,E,18.18,346.90,150711,,,A*50
$GPGGA,100447.000,5638.8461,N,01627.8883,E,1,09,1.2,8.6,M,31.2,M,,0000*54
$GPGSA,A,3,15,28,26,27,09,17,18,08,11,,,,2.0,1.2,1.7*34
$GPRMC,100447.000,A,5638.8461,N,01627.8883,E,18.40,346.41,150711,,,A*58
$GPGGA,100448.000,5638.8511,N,01627.8861,E,1,09,1.2,8.4,M,31.2,M,,0000*53
$GPGSA,A,3,15,28,26,27,09,17,18,08,11,,,,2.0,1.2,1.7*34
$GPRMC,100448.000,A,5638.8511,N,01627.8861,E,19.12,346.31,150711,,,A*5C
$GPGGA,100449.000,5638.8562,N,01627.8839,E,1,09,1.2,8.2,M,31.2,M,,0000*5D
$GPGSA,A,3,15,28,26,27,09,17,18,08,11,,,,2.0,1.2,1.7*34
$GPRMC,100449.000,A,5638.8562,N,01627.8839,E,19.30,347.21,150711,,,A*54
$GPGGA,100450.000,5638.8615,N,01627.8818,E,1,09,1.2,8.1,M,31.2,M,,0000*56
$GPGSA,A,3,15,28,26,27,09,17,18,08,11,,,,2.0,1.2,1.7*34
$GPGSV,3,1,11,15,66,252,49,28,53,069,50,26,53,162,49,27,51,274,49*76
$GPGSV,31,09,29,273,48,17,26,129,44,18,25,304,46,08,14,088,39*74
$GPGSV,3,3,11,11,07,044,39,22,09,335,42,19,10,023,*46
$GPRMC,100450.000,A,5638.8615,N,01627.8818,E,19.74,347.34,150711,,,A*58
$GPGGA,100451.000,5638.8668,N,01627.8796,E,1,09,1.2,8.3,M,31.2,M,,0000*56
$GPGSA,A,3,15,28,26,27,09,17,18,08,11,,,,2.0,1.2,1.7*34
$GPRMC,100451.000,A,5638.8668,N,01627.8796,E,19.80,348.20,150711,,,A*5B
$GPGGA,100452.000,5638.8722,N,01627.8776,E,1,09,1.2,8.3,M,31.2,M,,0000*54
$GPGSA,A,3,15,28,26,27,09,17,18,08,11,,,,2.0,1.2,1.7*34
$GPRMC,100452.000,A,5638.8722,N,01627.8776,E,19.98,349.20,150711,,,A*51
$GPGGA,100453.000,5638.8776,N,01627.8757,E,1,09,1.2,8.4,M,31.2,M,,0000*50
$GPGSA,A,3,15,28,26,27,09,17,18,08,11,,,,2.0,1.2,1.7*34
$GPRMC,100453.000,A,5638.8776,N,01627.8757,E,20.30,349.77,150711,,,A*58
$GPGGA,100454.000,5638.8831,N,01627.8738,E,1,09,1.2,8.4,M,31.2,M,,0000*52
$GPGSA,A,3,15,28,26,27,09,17,18,08,11,,,,2.0,1.2,1.7*34
$GPRMC,100454.000,A,5638.8831,N,01627.8738,E,20.54,348.97,150711,,,A*57
$GPGGA,100455.000,5638.8887,N,01627.8718,E,1,09,1.2,8.4,M,31.2,M,,0000*5C
$GPGSA,A,3,15,28,26,27,09,17,18,08,11,,,,2.0,1.2,1.7*34
$GPGSV,3,1,11,15,66,252,48,28,53,069,50,26,53,162,49,27,51,274,49*77
$GPGSV,3,2,11,09,29,273,48,17,26,129,44,18,25,304,46,08,14,088,46*7C
$GPGSV,3,3,11,11,07,044,29,22,09,335,40,19,10,023,*45
$GPRMC,100455.000,A,5638.8887,N,01627.8718,E,20.41,349.57,150711,,,A*50
$GPGGA,100456.000,5638.8942,N,01627.8700,E,1,09,1.2,8.2,M,31.2,M,,0000*58
$GPGSA,A,3,15,28,26,27,09,17,18,08,11,,,,2.0,1.2,1.7*34
$GPRMC,100456.000,A,5638.8942,N,01627.8700,E,20.16,350.29,150711,,,A*51
$GPGGA,100457.000,5638.8997,N,01627.8684,E,1,09,1.2,8.1,M,31.2,M,,0000*5F
$GPGSA,A,3,15,28,26,27,09,17,18,08,11,,,,2.0,1.2,1.7*34
$GPRMC,100457.000,A,5638.8997,N,01627.8684,E,19.91,350.82,150711,,,A*51
$GPGGA,100458.000,5638.9051,N,01627.8668,E,1,10,1.1,8.2,M,31.2,M,,0000*58
$GPGSA,A,3,15,28,26,27,09,17,18,08,22,11,,,2.0,1.1,1.6*36
$GPRMC,100458.000,A,5638.9051,N,01627.8668,E,19.39,351.55,150711,,,A*57
$GPGGA,100459.000,5638.9103,N,01627.8654,E,1,10,1.1,8.3,M,31.2,M,,0000*51
$GPGSA,A,3,15,28,26,27,09,17,18,08,22,11,,,2.0,1.1,1.6*36
$GPRMC,100459.000,A,5638.9103,N,01627.8654,E,18.92,351.86,150711,,,A*51
$GPGGA,100500.000,5638.9153,N,01627.8641,E,1,10,1.1,8.3,M,31.2,M,,0000*5D
$GPGSA,A,3,15,28,26,27,09,17,18,08,22,11,,,2.0,1.1,1.6*36
$GPGSV,3,1,11,15,66,251,48,28,53,069,50,26,53,162,49,27,51,274,49*74
$GPGS2,11,09,29,273,49,17,26,129,45,18,25,304,46,08,14,088,44*7E
$GPGSV,3,3,11,22,09,335,37,11,07,044,34,19,10,023,*49
$GPRMC,100500.000,A,5638.9153,N,01627.8641,E,17.63,351.76,150711,,,A*53
$GPGGA,100501.000,5638.9200,N,01627.8629,E,1,10,1.1,8.2,M,31.2,M,,0000*56
$GPGSA,A,3,15,28,26,27,09,17,18,08,22,11,,,2.0,1.1,1.6*36
$GPRMC,100501.000,A,5638.9200,N,01627.8629,E,16.15,351.90,150711,,,A*51
$GPGGA,100502.000,5638.9242,N,01627.8625,E,1,10,1.1,8.1,M,31.2,M,,0000*5C
$GPGSA,A,3,15,28,26,27,09,17,18,08,22,11,,,2.0,1.1,1.6*36
$GPRMC,100502.000,A,5638.9242,N,01627.8625,E,14.08,0.33,150711,,,A*58
$GPGGA,100503.000,5638.9277,N,01627.8635,E,1,10,1.1,8.0,M,31.2,M,,0000*5B
$GPGSA,A,3,15,28,26,27,09,17,18,08,22,11,,,2.0,1.1,1.6*36
$GPRMC,100503.000,A,5638.9277,N,01627.8635,E,11.85,12.62,150711,,,A*69
$GPGGA,100504.000,5638.9307,N,01627.8658,E,1,10,1.1,8.1,M,31.2,M,,0000*50
$GPGSA,A,3,15,28,26,27,09,17,18,08,22,11,,,2.0,1.1,1.6*36
$GPRMC,100504.000,A,5638.9307,N,01627.8658,E,11.52,26.78,150711,,,A*65
$GPGGA,100505.000,5638.9335,N,01627.8689,E,1,10,1.1,8.2,M,31.2,M,,0000*5F
$GPGSA,A,3,15,28,26,27,09,17,18,08,22,11,,,2.0,1.1,1.6*36
$GPGSV,3,1,11,15,66,251,48,28,53,069,50,26,53,162,49,27,51,274,48*75
$GPGSV,3,2,11,09,29,273,48,17,26,129,46,18,25,304,47,08,14,088,44*7D
$GPGSV,3,3,11,22,09,335,43,11,07,044,36,19,10,023,*48
$GPRMC,100505.000,A,5638.9335,N,01627.8689,E,11.40,30.39,150711,,,A*68
$GPGGA,100506.000,5638.9365,N,01627.8714,E,1,10,1.1,8.3,M,31.2,M,,0000*5D
$GPGSA,A,3,15,28,26,27,09,17,18,08,22,11,,,2.0,1.1,1.6*36
$GPRMC,100506.000,A,5638.9365,N,01627.8714,E,12.51,20.65,150711,,,A*60
$GPGGA,100507.000,5638.9401,N,01627.8726,E,1,10,1.1,8.3,M,31.2,M,,0000*58
$GPGSA,A,3,15,28,26,27,09,17,18,08,22,11,,,2.0,1.1,1.6*36
$GPRMC,100507.000,A,5638.9401,N,01627.8726,E,13.52,6.06,150711,,,A*56
$GPGGA,100508.000,5638.9440,N,01627.8721,E,1,09,1.2,8.3,M,31.2,M,,0000*5E
$GPGSA,A,3,15,28,26,27,09,17,18,08,22,,,,2.0,1.2,1.6*35
$GPRMC,100508.000,A,5638.9440,N,01627.8721,E,14.53,352.89,150711,,,A*58
$GPGGA,100509.000,5638.9481,N,01627.8701,E,1,10,1.1,8.4,M,31.2,M,,0000*5C
$GPGSA,A,3,15,28,26,27,09,17,18,08,22,11,,,2.0,1.1,1.6*36
$GPRMC,100509.000,A,5638.9481,N,01627.8701,E,15.39,343.78,150711,,,A*55
$GPGGA,100510.000,5638.9523,N,01627.8678,E,1,10,1.1,8.5,M,31.2,M,,0000*53
$GPGSA,A,3,15,28,26,27,09,17,18,08,22,11,,,2.0,1.1,1.6*36
$GPGSV,3,1,11,15,66,251,48,28,53,069,50,26,53,162,49,27,51,274,48*75
$GPGSV,2,11,09,29,273,48,17,26,129,46,18,25,304,47,08,14,088,45*7C
$GPGSV,3,3,11,22,09,335,42,11,07,044,32,19,10,023,*4D
$GPRMC,100510.000,A,5638.9523,N,01627.8678,E,16.81,344.44,150711,,,A*53
$GPGGA,100511.000,5638.9570,N,01627.8660,E,1,10,1.1,8.6,M,31.2,M,,0000*5E
$GPGSA,A,3,15,28,26,27,09,17,18,08,22,11,,,2.0,1.1,1.6*36
$GPRMC,100511.000,A,5638.9570,N,01627.8660,E,17.58,351.15,150711,,,A*58
$GPGGA,100512.000,5638.9618,N,01627.8653,E,1,10,1.1,8.7,M,31.2,M,,0000*51
$GPGSA,A,3,15,28,26,27,09,17,18,08,22,11,,,2.0,1.1,1.6*36
$GPRMC,100512.000,A,5638.9618,N,01627.8653,E,16.79,357.23,150711,,,A*57
$GPGGA,100513.000,5638.9664,N,01627.8655,E,1,10,1.1,8.9,M,31.2,M,,0000*53
$GPGSA,A,3,15,28,26,27,09,17,18,08,22,11,,,2.0,1.1,1.6*36
$GPRMC,100513.000,A,5638.9664,N,01627.8655,E,16.00,4.32,150711,,,A*50
$GPGGA,100514.000,5638.9709,N,01627.8665,E,1,10,1.1,9.0,M,31.2,M,,0000*55
$GPGSA,A,3,15,28,26,27,09,17,18,08,22,11,,,2.0,1.1,1.6*36
$GPRMC,100514.000,A,5638.9709,N,01627.8665,E,16.25,8.73,150711,,,A*50
$GPGGA,100515.000,5638.9754,N,01627.8681,E,1,10,1.1,9.1,M,31.2,M,,0000*57
$GPGSA,A,3,15,28,26,27,09,17,18,08,22,11,,,2.0,1.1,1.6*36
$GPGSV,3,1,11,15,66,251,48,28,53,069,49,26,53,162,49,27,51,274,48*7D
$GPGSV,3,2,11,09,29,273,48,17,26,129,44,18,25,304,46,08,14,088,45*7F
$GPGSV,3,3,11,22,09,335,42,11,07,044,39,19,10,023,*46
$GPRMC,100515.000,A,5638.9754,N,01627.8681,E,16.80,11.19,150711,,,A*68
$GPGGA,100516.000,5638.9799,N,01627.8699,E,1,10,1.1,9.3,M,31.2,M,,0000*5E
$GPGSA,A,3,15,28,26,27,09,17,18,08,22,11,,,2.0,1.1,1.6*36
$GPRMC,100516.000,A,5638.9799,N,01627.8699,E,16.70,12.99,150711,,,A*67
$GPGGA,100517.000,5638.9843,N,01627.8721,E,1,10,1.1,9.3,M,31.2,M,,0000*55
$GPGSA,A,3,15,28,26,27,09,17,18,08,22,11,,,2.0,1.1,1.6*36
$GPRMC,100517.000,A,5638.9843,N,01627.8721,E,16.13,15.97,150711,,,A*60
$GPGGA,100518.000,5638.9886,N,01627.8746,E,1,10,1.1,9.1,M,31.2,M,,0000*50
$GPGSA,A,3,15,28,26,27,09,17,18,08,22,11,,,2.0,1.1,1.6*36
$GPRMC,100518.000,A,5638.9886,N,01627.8746,E,16.38,16.58,150711,,,A*6E
$GPGGA,100519.000,5638.9930,N,01627.8770,E,1,10,1.1,9.0,M,31.2,M,,0000*59
$GPGSA,A,3,15,28,26,27,09,17,18,08,22,11,,,2.0,1.1,1.6*36
$GPRMC,100519.000,A,5638.9930,N,01627.8770,E,17.12,17.61,150711,,,A*64
$GPGGA,100520.000,5638.9976,N,01627.8798,E,1,10,1.1,9.0,M,31.2,M,,0000*57
$GPGSA,A,3,15,28,26,27,09,17,18,08,22,11,,,2.0,1.1,1.6*36
$GPGSV,3,1,11,15,66,251,47,28,53,069,50,26,52,162,49,27,51,274,48*7B
$GPGSV,3,2,11,09,30,273,46,17,26,129,45,18,25,303,46,08,14,088,45*7F
$GPGSV,3,3,11,22,09,335,43,11,07,044,44,19,10,023,*4D
$GPRMC,100520.000,A,5638.9976,N,01627.8798,E,17.59,19.82,150711,,,A*66
$GPGGA,100521.000,5639.0022,N,01627.8829,E,1,10,1.1,9.0,M,31.2,M,,0000*53
$GPGSA,A,3,15,28,26,27,09,17,18,08,22,11,,,2.0,1.1,1.6*36
$GPRMC,100521.000,A,5639.0022,N,01627.8829,E,17.35,20.41,150711,,,A*6D
$GPGGA,100522.000,5639.0066,N,01627.8861,E,1,10,1.1,9.2,M,31.2,M,,0000*5E
$GPGSA,A,3,15,28,26,27,09,17,18,08,22,11,,,2.0,1.1,1.6*36
$GPRMC,100522.000,A,5639.0066,N,01627.8861,E,17.20,22.04,150711,,,A*65
$GPGGA,100523.000,5639.0110,N,01627.8895,E,1,10,1.1,9.1,M,31.2,M,,0000*57
$GPGSA,A,3,15,28,26,27,09,17,18,08,22,11,,,2.0,1.1,1.6*36
$GPRMC,100523.000,A,5639.0110,N,01627.8895,E,17.15,24.32,150711,,,A*6A
$GPGGA,100524.000,5639.0153,N,01627.8932,E,1,09,1.2,9.3,M,31.2,M,,0000*52
$GPGSA,A,3,15,28,26,27,09,17,18,08,22,,,,2.0,1.2,1.6*35
$GPRMC,100524.000,A,5639.0153,N,01627.8932,E,16.65,26.27,150711,,,A*66
$GPGGA,100525.000,5639.0194,N,01627.8970,E,1,10,1.1,9.1,M,31.2,M,,0000*57
$GPGSA,A,3,15,28,26,27,09,17,18,08,22,11,,,2.0,1.1,1.6*36
$GPGSV,3,1,11,15,66,251,47,28,53,069,49,26,52,162,49,27,51,274,48*73
$GPGSV,3,2,11,09,30,273,45,17,26,129,47,18,25,303,46,08,14,088,45*7E
$GPGSV,3,3,11,22,09,335,42,11,07,044,37,19,10,023,*48
$GPRMC,100525.000,A,5639.0194,N,01627.8970,E,16.72,27.65,150711,,,A*6B
$GPGGA,100526.000,5639.0235,N,01627.9011,E,1,10,1.1,9.3,M,31.2,M,,0000*51
$GPGSA,A,3,15,28,26,27,09,17,18,08,22,11,,,2.0,1.1,1.6*36
$GPRMC,100526.000,A,5639.0235,N,01627.9011,E,16.86,29.47,150711,,,A*6A
$GPGGA,100527.000,5639.0276,N,01627.9055,E,1,10,1.1,9.4,M,31.2,M,,0000*50
$GPGSA,A,3,15,28,26,27,09,17,18,08,22,11,,,2.0,1.1,1.6*36
$GPRMC,100527.000,A,5639.0276,N,01627.9055,E,17.00,31.98,150711,,,A*68
$GPGGA,100528.000,5639.0316,N,01627.9102,E,1,10,1.1,9.5,M,31.2,M,,0000*5A
$GPGSA,A,3,15,28,26,27,09,17,18,08,22,11,,,2.0,1.1,1.6*36
$GPRMC,100528.000,A,5639.0316,N,01627.9102,E,17.37,33.19,150711,,,A*6C
$GPGGA,100529.000,5639.0356,N,01627.9152,E,1,10,1.1,9.5,M,31.2,M,,0000*5A
$GPGSA,A,3,15,28,26,27,09,17,18,08,22,11,,,2.0,1.1,1.6*36
$GPRMC,100529.000,A,5639.0356,N,01627.9152,E,17.19,34.53,150711,,,A*69
$GPGGA,100530.000,5639.0394,N,01627.9199,E,1,10,1.1,9.5,M,31.2,M,,0000*5B
$GPGSA,A,3,15,28,26,27,09,17,18,08,22,11,,,2.0,1.1,1.6*36
$GPGSV,3,1,11,15,66,251,48,28,53,069,49,26,52,162,49,27,51,274,47*73
$GPGSV,3,2,11,09,30,273,46,17,26,129,47,18,25,303,47,08,14,088,45*7C
$GPGSV,3,3,11,22,09,335,41,11,07,044,44,19,10,023,*4F
$GPRMC,100530.000,A,5639.0394,N,01627.9199,E,16.75,33.26,150711,,,A*66
$GPGGA,100531.000,5639.0433,N,01627.9243,E,1,10,1.1,9.5,M,31.2,M,,0000*54
$GPGSA,A,3,15,28,26,27,09,17,18,08,22,11,,,2.0,1.1,1.6*36
$GPRMC,100531.000,A,5639.0433,N,01627.9243,E,16.59,31.72,150711,,,A*64
$GPGGA,100532.000,5639.0472,N,01627.9285,E,1,10,1.1,9.6,M,31.2,M,,0000*5B
$GPGSA,A,3,15,28,26,27,09,17,18,08,22,11,,,2.0,1.1,1.6*36
$GPRMC,100532.000,A,5639.0472,N,01627.9285,E,16.14,29.70,150711,,,A*6A
$GPGGA,100533.000,5639.0510,N,01627.9323,E,1,10,1.1,9.7,M,31.2,M,,0000*53
$GPGSA,A,3,15,28,26,27,09,17,18,08,22,11,,,2.0,1.1,1.6*36
$GPRMC,100533.000,A,5639.0510,N,01627.9323,E,15.43,28.75,150711,,,A*66
$GPGGA,100534.000,5639.0549,N,01627.9360,E,1,10,1.1,10.0,M,31.2,M,,0000*60
$GPGSA,A,3,15,28,26,27,09,17,18,08,22,11,,,2.0,1.1,1.6*36
$GPRMC,100534.000,A,5639.0549,N,01627.9360,E,15.86,27.87,150711,,,A*61
$GPGGA,100535.000,5639.0586,N,01627.9397,E,1,10,1.1,9.9,M,31.2,M,,0000*5B
$GPGSA,A,3,15,28,26,27,09,17,18,08,22,11,,,2.0,1.1,1.6*36
$GPGSV,3,1,11,15,66,251,48,28,53,069,49,26,52,162,49,27,51,274,47*73
$GPGSV,3,2,11,09,30,273,46,17,26,129,47,18,25,303,47,08,14,088,45*7C
$GPGSV,3,3,11,22,09,335,39,11,07,044,47,19,10,023,*43
$GPRMC,100535.000,A,5639.0586,N,01627.9397,E,14.67,28.63,150711,,,A*60
$GPGGA,100536.000,5639.0618,N,01627.9438,E,1,10,1.1,9.9,M,31.2,M,,0000*5E
$GPGSA,A,3,15,28,26,27,09,17,18,08,22,11,,,2.0,1.1,1.6*36
$GPRMC,100536.000,A,5639.0618,N,01627.9438,E,13.54,38.43,150711,,,A*61
$GPGGA,100537.000,5639.0638,N,01627.9490,E,1,10,1.1,9.9,M,31.2,M,,0000*5F
$GPGSA,A,3,15,28,26,27,09,17,18,08,22,11,,,2.0,1.1,1.6*36
$GPRMC,100537.000,A,5639.0638,N,01627.9490,E,12.56,54.20,150711,,,A*6C
$GPGGA,100538.000,5639.0647,N,01627.9550,E,1,10,1.1,9.9,M,31.2,M,,0000*55
$GPGSA,A,3,15,28,26,27,09,17,18,08,22,11,,,2.0,1.1,1.6*36
$GPRMC,100538.000,A,5639.0647,N,01627.9550,E,12.28,75.76,150711,,,A*6F
$GPGGA,100539.000,5639.0647,N,01627.9613,E,1,10,1.1,9.9,M,31.2,M,,0000*50
$GPGSA,A,3,15,28,26,27,09,17,18,08,22,11,,,2.0,1.1,1.6*36
$GPRMC,100539.000,A,5639.0647,N,01627.9613,E,12.51,87.95,150711,,,A*64
$GPGGA,100540.000,5639.0647,N,01627.9677,E,1,10,1.1,10.0,M,31.2,M,,0000*6D
$GPGSA,A,3,15,28,26,27,09,17,18,08,22,11,,,2.0,1.1,1.6*36
$GPGSV,3,1,11,15,66,251,48,28,53,069,49,26,52,162,49,27,51,274,47*73
$GP,3,2,11,09,30,273,46,17,26,129,48,18,25,303,46,08,14,088,45*72
$GPGSV,3,3,11,22,09,335,41,11,07,044,42,19,10,023,*49
$GPRMC,100540.000,A,5639.0647,N,01627.9677,E,12.81,88.24,150711,,,A*60
$GPGGA,100541.000,5639.0654,N,01627.9740,E,1,10,1.1,10.0,M,31.2,M,,0000*6B
$GPGSA,A,3,15,28,26,27,09,17,18,08,22,11,,,2.0,1.1,1.6*36
$GPRMC,100541.000,A,5639.0654,N,01627.9740,E,12.97,75.88,150711,,,A*65
$GPGGA,100542.000,5639.0672,N,01627.9797,E,1,10,1.1,10.1,M,31.2,M,,0000*67
$GPGSA,A,3,15,28,26,27,09,17,18,08,22,11,,,2.0,1.1,1.6*36
$GPRMC,100542.000,A,5639.0672,N,01627.9797,E,13.06,57.61,150711,,,A*66
